{"dataset":{"id":"02-religious_sites_jinshan_shimen","records":{"25.28861,121.54611":[{"nanyangSiteId":"js-mb-S001","siteNameZh":"聖天宮","siteNameAlt1":"Shengtian Gong","latitude":"25.28861","longitude":"121.54611"}],"25.28944,121.54555":[{"nanyangSiteId":"js-mb-S002","siteNameZh":"凌虛宮","siteNameAlt1":"Lingxu Gong","latitude":"25.28944","longitude":"121.54555"},{"nanyangSiteId":"js-mb-S003","siteNameZh":"天后宮","siteNameAlt1":"Tianhou Gong","latitude":"25.28944","longitude":"121.54555"}],"25.28972,121.54416":[{"nanyangSiteId":"js-mb-S004","siteNameZh":"海得宮","siteNameAlt1":"Haide Gong","latitude":"25.28972","longitude":"121.54416"}],"25.29021,121.54348":[{"nanyangSiteId":"js-mb-S005","siteNameZh":"福恩宮","siteNameAlt1":"Fuen Gong","latitude":"25.29021","longitude":"121.54348"}],"25.28532,121.54029":[{"nanyangSiteId":"js-mb-S006","siteNameZh":"雪山玄武廟","siteNameAlt1":"Xueshan Xuanwu Miao","latitude":"25.28532","longitude":"121.54029"}],"25.28959,121.54447":[{"nanyangSiteId":"js-mb-S007","siteNameZh":"天主堂","siteNameAlt1":"Tianzhu Tang","latitude":"25.28959","longitude":"121.54447"}],"25.28541,121.54012":[{"nanyangSiteId":"js-mb-S008","siteNameZh":"五營","siteNameAlt1":"Wuying","latitude":"25.28541","longitude":"121.54012"}],"25.26682,121.62792":[{"nanyangSiteId":"js-mb-S009","siteNameZh":"土地公","siteNameAlt1":"Tudi Gong","latitude":"25.26682","longitude":"121.62792"}],"25.29119,121.56076":[{"nanyangSiteId":"js-mb-S010","siteNameZh":"萬應公","siteNameAlt1":"Wanying Gong","latitude":"25.29119","longitude":"121.56076"}],"25.28796,121.54492":[{"nanyangSiteId":"js-mb-S011","siteNameZh":"什姓堂","siteNameAlt1":"Shi Xing Tang","latitude":"25.28796","longitude":"121.54492"}],"25.28472,121.5375":[{"nanyangSiteId":"js-mb-S012","siteNameZh":"鎮海宮（包公廟）","siteNameAlt1":"Zhenhai Gong (Bao Gong Miao)","latitude":"25.28472","longitude":"121.5375"},{"nanyangSiteId":"js-mb-S013","siteNameZh":"五營房（包公廟前）","siteNameAlt1":"Wuying fang (Bao Gong Miao qian)","latitude":"25.28472","longitude":"121.5375"}],"25.28005,121.53772":[{"nanyangSiteId":"js-mb-S014","siteNameZh":"楓林土地公","siteNameAlt1":"Fenglin Tudi Gong","latitude":"25.28005","longitude":"121.53772"}],"25.27055,121.53833":[{"nanyangSiteId":"js-mb-S015","siteNameZh":"土地公","siteNameAlt1":"Tudi Gong","latitude":"25.27055","longitude":"121.53833"}],"25.2707,121.53629":[{"nanyangSiteId":"js-mb-S016","siteNameZh":"土地公","siteNameAlt1":"Tudi Gong","latitude":"25.2707","longitude":"121.53629"}],"25.26998,121.53542":[{"nanyangSiteId":"js-mb-S017","siteNameZh":"富福頂山寺（貝殼廟）","siteNameAlt1":"Fufu Dingshan Si (Beike Miao)","latitude":"25.26998","longitude":"121.53542"}],"25.27088,121.53434":[{"nanyangSiteId":"js-mb-S018","siteNameZh":"八甲福德宮","siteNameAlt1":"Bajia Fude Gong","latitude":"25.27088","longitude":"121.53434"}],"25.26777,121.54755":[{"nanyangSiteId":"js-mb-S019","siteNameZh":"有應公","siteNameAlt1":"Youying Gong","latitude":"25.26777","longitude":"121.54755"}],"25.28833,121.54704":[{"nanyangSiteId":"js-mb-S020","siteNameZh":"老梅福德宮","siteNameAlt1":"Laomei Fude Gong","latitude":"25.28833","longitude":"121.54704"}],"25.27416,121.55361":[{"nanyangSiteId":"js-mb-S021","siteNameZh":"聖明宮（千年神樹宮/山神福德宮 ）","siteNameAlt1":"Shengming Gong","latitude":"25.27416","longitude":"121.55361"}],"25.27551,121.54617":[{"nanyangSiteId":"js-mb-S022","siteNameZh":"地基公","siteNameAlt1":"Diji Gong","latitude":"25.27551","longitude":"121.54617"}],"25.28116,121.53995":[{"nanyangSiteId":"js-mb-S023","siteNameZh":"石門情人廟","siteNameAlt1":"Shimen Qingren Miao","latitude":"25.28116","longitude":"121.53995"}],"25.28722,121.53305":[{"nanyangSiteId":"js-mb-S024","siteNameZh":"石門金剛宫","siteNameAlt1":"Shimen Jingang Gong","latitude":"25.28722","longitude":"121.53305"}],"25.28777,121.5325":[{"nanyangSiteId":"js-mb-S025","siteNameZh":"崁子脚福德正神宫","siteNameAlt1":"Kanzijiao Fudezhengshen Gong","latitude":"25.28777","longitude":"121.5325"}],"25.28737,121.53141":[{"nanyangSiteId":"js-mb-S026","siteNameZh":"石門聖合宮","siteNameAlt1":"Shimen Shenghe Gong","latitude":"25.28737","longitude":"121.53141"}],"25.28754,121.53163":[{"nanyangSiteId":"js-mb-S027","siteNameZh":"無名觀音像","siteNameAlt1":"Wuming Guanyinxiang","latitude":"25.28754","longitude":"121.53163"}],"25.28329,121.52092":[{"nanyangSiteId":"js-mb-S028","siteNameZh":"白沙灣福德宮","siteNameAlt1":"Baishawan Fude Gong","latitude":"25.28329","longitude":"121.52092"}],"25.28333,121.52027":[{"nanyangSiteId":"js-mb-S029","siteNameZh":"北海宮（保生大帝）","siteNameAlt1":"Baoshengdadi Beihai Gong","latitude":"25.28333","longitude":"121.52027"}],"25.28277,121.51972":[{"nanyangSiteId":"js-mb-S030","siteNameZh":"觀航寺","siteNameAlt1":"Guanhang Si","latitude":"25.28277","longitude":"121.51972"}],"25.28467,121.51153":[{"nanyangSiteId":"js-mb-S031","siteNameZh":"福德宮（麟山鼻土地公）","siteNameAlt1":"Linshanbi Fude Gong","latitude":"25.28467","longitude":"121.51153"}],"25.28833,121.5375":[{"nanyangSiteId":"js-mb-S032","siteNameZh":"石門紫雲巖","siteNameAlt1":"Shimen Ziyunyan","latitude":"25.28833","longitude":"121.5375"}],"25.29003,121.54441":[{"nanyangSiteId":"js-mb-S033","siteNameZh":"萬善堂","siteNameAlt1":"Wanshan Tang","latitude":"25.29003","longitude":"121.54441"}],"25.27277,121.51833":[{"nanyangSiteId":"js-mb-S034","siteNameZh":"福德宮","siteNameAlt1":"Fude Gong","latitude":"25.27277","longitude":"121.51833"}],"25.27281,121.52189":[{"nanyangSiteId":"js-mb-S035","siteNameZh":"德茂村福德宮","siteNameAlt1":"Demaocun Fude Gong","latitude":"25.27281","longitude":"121.52189"}],"25.27083,121.52611":[{"nanyangSiteId":"js-mb-S036","siteNameZh":"石門三清宮","siteNameAlt1":"Shimen Sanqing Gong","latitude":"25.27083","longitude":"121.52611"}],"25.26851,121.53066":[{"nanyangSiteId":"js-mb-S037","siteNameZh":"石門保生大帝","siteNameAlt1":"Shimen Baoshengdadi","latitude":"25.26851","longitude":"121.53066"}],"25.25,121.54833":[{"nanyangSiteId":"js-mb-S038","siteNameZh":"妙法寺","siteNameAlt1":"Miaofa Si","latitude":"25.25","longitude":"121.54833"}],"25.25184,121.54739":[{"nanyangSiteId":"js-mb-S039","siteNameZh":"無極日月慈母殿","siteNameAlt1":"Wuji Riyue Cimu Dian","latitude":"25.25184","longitude":"121.54739"}],"25.285,121.52555":[{"nanyangSiteId":"js-mb-S040","siteNameZh":"明德堂","siteNameAlt1":"Mingde Tang","latitude":"25.285","longitude":"121.52555"}],"25.28055,121.52527":[{"nanyangSiteId":"js-mb-S041","siteNameZh":"土地公","siteNameAlt1":"Tudi Gong","latitude":"25.28055","longitude":"121.52527"}],"25.27201,121.59465":[{"nanyangSiteId":"js-mb-S042","siteNameZh":"十八王公廟 山上","siteNameAlt1":"Shi Ba Wang Gong Miao Shan Shang","latitude":"25.27201","longitude":"121.59465"}],"25.29213,121.58671":[{"nanyangSiteId":"js-mb-S043","siteNameZh":"十八王公廟 山下","siteNameAlt1":"Shi Ba Wang Gong Miao Shan Xia","latitude":"25.29213","longitude":"121.58671"}],"25.29706,121.57048":[{"nanyangSiteId":"js-mb-S044","siteNameZh":"北海聖安宮","siteNameAlt1":"Bei Hai Sheng An Gong","latitude":"25.29706","longitude":"121.57048"}],"25.29478,121.56868":[{"nanyangSiteId":"js-mb-S045","siteNameZh":"石門洞五龍宮","siteNameAlt1":"Shi Men Dong Wu Long Gong","latitude":"25.29478","longitude":"121.56868"}],"25.27937,121.61361":[{"nanyangSiteId":"js-mb-S046","siteNameZh":"水流公","siteNameAlt1":"Shui Liu Gong","latitude":"25.27937","longitude":"121.61361"}],"25.27375,121.58038":[{"nanyangSiteId":"js-mb-S047","siteNameZh":"慈清宮","siteNameAlt1":"Ci Qing Gong","latitude":"25.27375","longitude":"121.58038"}],"25.2693,121.58099":[{"nanyangSiteId":"js-mb-S048","siteNameZh":"茄苳腳福德宮","siteNameAlt1":"Qie Dong Jiao Fu De Gong","latitude":"25.2693","longitude":"121.58099"}],"25.25674,121.58414":[{"nanyangSiteId":"js-mb-S049","siteNameZh":"普陀山慈航宮","siteNameAlt1":"Pu Tuo Shan Ci Hang Gong","latitude":"25.25674","longitude":"121.58414"}],"25.24946,121.57788":[{"nanyangSiteId":"js-mb-S050","siteNameZh":"桃園殿 山上","siteNameAlt1":"Tao Yuan Dian Shan Shang","latitude":"25.24946","longitude":"121.57788"}],"25.24973,121.57889":[{"nanyangSiteId":"js-mb-S051","siteNameZh":"桃園殿 山下","siteNameAlt1":"Tao Yuan Dian Shan Xia","latitude":"25.24973","longitude":"121.57889"}],"25.23704,121.58249":[{"nanyangSiteId":"js-mb-S052","siteNameZh":"天霞寺","siteNameAlt1":"Tian Xia Si","latitude":"25.23704","longitude":"121.58249"}],"25.25402,121.5922":[{"nanyangSiteId":"js-mb-S053","siteNameZh":"妙濟禪寺","siteNameAlt1":"Miao Ji Chan Si","latitude":"25.25402","longitude":"121.5922"}],"25.2899,121.56743":[{"nanyangSiteId":"js-mb-S054","siteNameZh":"尖鹿福安宮","siteNameAlt1":"Jian Lu Fu An Gong","latitude":"25.2899","longitude":"121.56743"}],"25.27914,121.57334":[{"nanyangSiteId":"js-mb-S055","siteNameZh":"石門坑溪尾土地公","siteNameAlt1":"Shi Men Keng Xi Wei Tu Di Gong","latitude":"25.27914","longitude":"121.57334"}],"25.27352,121.57144":[{"nanyangSiteId":"js-mb-S056","siteNameZh":"石門坑城隍廟","siteNameAlt1":"Shi Men Keng Cheng Huang Miao","latitude":"25.27352","longitude":"121.57144"}],"25.27456,121.5673":[{"nanyangSiteId":"js-mb-S057","siteNameZh":"石佛","siteNameAlt1":"Shi Fo","latitude":"25.27456","longitude":"121.5673"}],"25.27441,121.56752":[{"nanyangSiteId":"js-mb-S058","siteNameZh":"內石門福德宮","siteNameAlt1":"Nei Shi Men Fu De Gong","latitude":"25.27441","longitude":"121.56752"}],"25.25565,121.57046":[{"nanyangSiteId":"js-mb-S059","siteNameZh":"佛光山北海道場","siteNameAlt1":"Fo Guang Shan Bei Hai Dao Chang","latitude":"25.25565","longitude":"121.57046"}],"25.25398,121.56635":[{"nanyangSiteId":"js-mb-S060","siteNameZh":"內門里12鄰福德宮","siteNameAlt1":"Nei Men Li 12 Lin Fu De Gong","latitude":"25.25398","longitude":"121.56635"}],"25.25398,121.5663":[{"nanyangSiteId":"js-mb-S061","siteNameZh":"福伯公廟","siteNameAlt1":"Fu Bo Gong Miao","latitude":"25.25398","longitude":"121.5663"}],"25.24354,121.56867":[{"nanyangSiteId":"js-mb-S062","siteNameZh":"靈山順天聖母","siteNameAlt1":"Ling Shan Shun Tian Sheng Mu","latitude":"25.24354","longitude":"121.56867"}],"25.26665,121.59741":[{"nanyangSiteId":"js-mb-S063","siteNameZh":"上智慈惠堂","siteNameAlt1":"Shang Zhi Ci Hui Tang","latitude":"25.26665","longitude":"121.59741"}],"25.26447,121.60209":[{"nanyangSiteId":"js-mb-S064","siteNameZh":"草埔尾福安宮","siteNameAlt1":"Cao Pu Wei Fu An Gong","latitude":"25.26447","longitude":"121.60209"}],"25.27991,121.60768":[{"nanyangSiteId":"js-mb-S065","siteNameZh":"草里里福安宮","siteNameAlt1":"Cao Li Li Fu An Gong","latitude":"25.27991","longitude":"121.60768"}],"25.27993,121.61048":[{"nanyangSiteId":"js-mb-S066","siteNameZh":"地包府","siteNameAlt1":"Di Bao Fu","latitude":"25.27993","longitude":"121.61048"}],"25.25656,121.61615":[{"nanyangSiteId":"js-mb-S067","siteNameZh":"地基主(五崙路東南)","siteNameAlt1":"Di Ji Zhu (Wu Lun Lu Dong Nan)","latitude":"25.25656","longitude":"121.61615"}],"25.26248,121.60576":[{"nanyangSiteId":"js-mb-S068","siteNameZh":"地基主(五崙路西北)","siteNameAlt1":"Di Ji Zhu (Wu Lun Lu Xi Bei)","latitude":"25.26248","longitude":"121.60576"}],"25.27441,121.6074":[{"nanyangSiteId":"js-mb-S069","siteNameZh":"土地公","siteNameAlt1":"Tu Di Gong","latitude":"25.27441","longitude":"121.6074"}],"25.29769,121.57619":[{"nanyangSiteId":"js-mb-S070","siteNameZh":"妙慈宮","siteNameAlt1":"Miao Ci Gong","latitude":"25.29769","longitude":"121.57619"}],"25.27992,121.55652":[{"nanyangSiteId":"js-mb-S071","siteNameZh":"老崩山天賜宮山下","siteNameAlt1":"Lao Beng Shan Tian Ci Gong Shan Xia","latitude":"25.27992","longitude":"121.55652"}],"25.2796,121.55662":[{"nanyangSiteId":"js-mb-S072","siteNameZh":"老崩山天賜宮山上","siteNameAlt1":"Lao Beng Shan Tian Ci Gong Shan Shang","latitude":"25.2796","longitude":"121.55662"}],"25.27769,121.55792":[{"nanyangSiteId":"js-mb-S073","siteNameZh":"曹洞宗台北別院","siteNameAlt1":"Cao Dong Zong Tai Bei Bie Yuan","latitude":"25.27769","longitude":"121.55792"}],"25.27699,121.55734":[{"nanyangSiteId":"js-mb-S074","siteNameZh":"觀音學舍","siteNameAlt1":"Guan Yin Xue She","latitude":"25.27699","longitude":"121.55734"}],"25.26811,121.56002":[{"nanyangSiteId":"js-mb-S075","siteNameZh":"台灣新北玉佛寺","siteNameAlt1":"Taiwan Xin Bei Yu Fo Si","latitude":"25.26811","longitude":"121.56002"}],"25.26806,121.5627":[{"nanyangSiteId":"js-mb-S076","siteNameZh":"九鳳宮","siteNameAlt1":"Jiu Feng Gong","latitude":"25.26806","longitude":"121.5627"}],"25.28667,121.55765":[{"nanyangSiteId":"js-mb-S077","siteNameZh":"無極天寶宮","siteNameAlt1":"Wu Ji Tian Bao Gong","latitude":"25.28667","longitude":"121.55765"}],"25.29116,121.55299":[{"nanyangSiteId":"js-mb-S078","siteNameZh":"福德宮","siteNameAlt1":"Fu De Gong","latitude":"25.29116","longitude":"121.55299"}],"25.29117,121.56467":[{"nanyangSiteId":"js-mb-S079","siteNameZh":"蓮池宮","siteNameAlt1":"Lian Chi Gong","latitude":"25.29117","longitude":"121.56467"}],"25.29131,121.5661":[{"nanyangSiteId":"js-mb-S080","siteNameZh":"石門福德宮","siteNameAlt1":"Shi Men Fu De Gong","latitude":"25.29131","longitude":"121.5661"}],"25.26238,121.58002":[{"nanyangSiteId":"js-mb-S081","siteNameZh":"內石門福德宮","siteNameAlt1":"Nei Shi Men Fu De Gong","latitude":"25.26238","longitude":"121.58002"}],"25.25536,121.57547":[{"nanyangSiteId":"js-mb-S082","siteNameZh":"普陀山日月大天宮","siteNameAlt1":"Pu Tuo Shan Ri Yue Da Tian Gong","latitude":"25.25536","longitude":"121.57547"}],"25.26672,121.62296":[{"nanyangSiteId":"js-mb-S083","siteNameZh":"伍天宮","siteNameAlt1":"Wu Tian Gong","latitude":"25.26672","longitude":"121.62296"}],"25.26812,121.62697":[{"nanyangSiteId":"js-mb-S084","siteNameZh":"金山無極三鴻天地人寺","siteNameAlt1":"Jin Shan Wu Ji San Hong Tian Di Ren Si","latitude":"25.26812","longitude":"121.62697"}],"25.2308,121.6197":[{"nanyangSiteId":"js-mb-S085","siteNameZh":"聖德宮","siteNameAlt1":"ShengDeGong","latitude":"25.2308","longitude":"121.6197"}],"25.2328,121.6164":[{"nanyangSiteId":"js-mb-S086","siteNameZh":"嚴淨寺","siteNameAlt1":"YanJingSi","latitude":"25.2328","longitude":"121.6164"}],"25.2361,121.615":[{"nanyangSiteId":"js-mb-S087","siteNameZh":"福德宮","siteNameAlt1":"FuDeGong","latitude":"25.2361","longitude":"121.615"}],"25.2469,121.6117":[{"nanyangSiteId":"js-mb-S088","siteNameZh":"慧明禪寺","siteNameAlt1":"HuiMingChanSi","latitude":"25.2469","longitude":"121.6117"}],"25.2481,121.6011":[{"nanyangSiteId":"js-mb-S089","siteNameZh":"金寶山鄧麗君紀念公園","siteNameAlt1":"JinBaoShanDengLiJunJiNianGongYuan","latitude":"25.2481","longitude":"121.6011"}],"25.2422,121.6264":[{"nanyangSiteId":"js-mb-S090","siteNameZh":"賜福宮","siteNameAlt1":"CiFuGong","latitude":"25.2422","longitude":"121.6264"}],"25.2389,121.6278":[{"nanyangSiteId":"js-mb-S091","siteNameZh":"天龍宮","siteNameAlt1":"TianLongGong","latitude":"25.2389","longitude":"121.6278"}],"25.2308,121.6486":[{"nanyangSiteId":"js-mb-S092","siteNameZh":"磺港福德廟","siteNameAlt1":"HuangGangFuDeMiao","latitude":"25.2308","longitude":"121.6486"}],"25.2272,121.6456":[{"nanyangSiteId":"js-mb-S093","siteNameZh":"文聖宮","siteNameAlt1":"WenShengGong","latitude":"25.2272","longitude":"121.6456"}],"25.2256,121.6444":[{"nanyangSiteId":"js-mb-S094","siteNameZh":"承天宮","siteNameAlt1":"ChengTianGong","latitude":"25.2256","longitude":"121.6444"}],"25.2206,121.6403":[{"nanyangSiteId":"js-mb-S095","siteNameZh":"慈護宮","siteNameAlt1":"CiHuGong","latitude":"25.2206","longitude":"121.6403"}],"25.2217,121.6381":[{"nanyangSiteId":"js-mb-S096","siteNameZh":"廣安宮","siteNameAlt1":"GuangAnGong","latitude":"25.2217","longitude":"121.6381"}],"25.2343,121.625":[{"nanyangSiteId":"js-mb-S097","siteNameZh":"镇天宫","siteNameAlt1":"ZhenTianGong","latitude":"25.2343","longitude":"121.625"}],"25.235,121.6255":[{"nanyangSiteId":"js-mb-S098","siteNameZh":"金山寺","siteNameAlt1":"JinShanSi","latitude":"25.235","longitude":"121.6255"}],"25.2217,121.6332":[{"nanyangSiteId":"js-mb-S099","siteNameZh":"中華布杜瓦佛學會","siteNameAlt1":"ZhongHuaBuDuWaFoXueHui","latitude":"25.2217","longitude":"121.6332"}],"25.2191,121.6389":[{"nanyangSiteId":"js-mb-S100","siteNameZh":"業主公","siteNameAlt1":"YeZhuGong","latitude":"25.2191","longitude":"121.6389"}],"25.2189,121.6396":[{"nanyangSiteId":"js-mb-S101","siteNameZh":"紫雲宮","siteNameAlt1":"ZiYunGong","latitude":"25.2189","longitude":"121.6396"}],"25.2195,121.6401":[{"nanyangSiteId":"js-mb-S102","siteNameZh":"龍鳳宮","siteNameAlt1":"LongFengGong","latitude":"25.2195","longitude":"121.6401"}],"25.217,121.6373":[{"nanyangSiteId":"js-mb-S103","siteNameZh":"福仁宮","siteNameAlt1":"FuRenGong","latitude":"25.217","longitude":"121.6373"}],"25.2137,121.634":[{"nanyangSiteId":"js-mb-S104","siteNameZh":"福德宮","siteNameAlt1":"FuDeGong","latitude":"25.2137","longitude":"121.634"}],"25.21366,121.63401":[{"nanyangSiteId":"js-mb-S105","siteNameZh":"天儀宮","siteNameAlt1":"TianYiGong","latitude":"25.21366","longitude":"121.63401"}],"25.20683,121.62862":[{"nanyangSiteId":"js-mb-S106","siteNameZh":"神奇宮","siteNameAlt1":"ShenQiGong","latitude":"25.20683","longitude":"121.62862"}],"25.20588,121.62649":[{"nanyangSiteId":"js-mb-S107","siteNameZh":"萬里情月老廟","siteNameAlt1":"WanLiQingYueLaoMiao","latitude":"25.20588","longitude":"121.62649"}],"25.20635,121.6266":[{"nanyangSiteId":"js-mb-S108","siteNameZh":"金山財神廟","siteNameAlt1":"JinShanCaiShenMiao","latitude":"25.20635","longitude":"121.6266"}],"25.2082,121.62669":[{"nanyangSiteId":"js-mb-S109","siteNameZh":"福德祠","siteNameAlt1":"FuDeCi","latitude":"25.2082","longitude":"121.62669"}],"25.21936,121.62233":[{"nanyangSiteId":"js-mb-S110","siteNameZh":"伍母樊慈宮","siteNameAlt1":"WuMuFanCiGong","latitude":"25.21936","longitude":"121.62233"}],"25.22115,121.62044":[{"nanyangSiteId":"js-mb-S111","siteNameZh":"??","siteNameAlt1":"??","latitude":"25.22115","longitude":"121.62044"}],"25.22156,121.62172":[{"nanyangSiteId":"js-mb-S112","siteNameZh":"慶元宮","siteNameAlt1":"QingYuanGong","latitude":"25.22156","longitude":"121.62172"}],"25.2194,121.60802":[{"nanyangSiteId":"js-mb-S113","siteNameZh":"??","siteNameAlt1":"??","latitude":"25.2194","longitude":"121.60802"}],"25.21803,121.60261":[{"nanyangSiteId":"js-mb-S114","siteNameZh":"朝天宮","siteNameAlt1":"ChaoTianGong","latitude":"25.21803","longitude":"121.60261"}],"25.21813,121.61612":[{"nanyangSiteId":"js-mb-S115","siteNameZh":"三清宮","siteNameAlt1":"SanQingGong","latitude":"25.21813","longitude":"121.61612"}],"25.23,121.62056":[{"nanyangSiteId":"js-mb-S116","siteNameZh":"三福宫","siteNameAlt1":"SanFuGong","latitude":"25.23","longitude":"121.62056"},{"nanyangSiteId":"js-mb-S117","siteNameZh":"清福宫","siteNameAlt1":"QingFuGong","latitude":"25.23","longitude":"121.62056"}],"25.22361,121.63722":[{"nanyangSiteId":"js-mb-S118","siteNameZh":"萬善堂","siteNameAlt1":"WanShanTang","latitude":"25.22361","longitude":"121.63722"}],"25.22458,121.63682":[{"nanyangSiteId":"js-mb-S119","siteNameZh":"武英殿","siteNameAlt1":"WuYingDian","latitude":"25.22458","longitude":"121.63682"}],"25.22346,121.64735":[{"nanyangSiteId":"js-mb-S120","siteNameZh":"威靈宮","siteNameAlt1":"WeiLingGong","latitude":"25.22346","longitude":"121.64735"},{"nanyangSiteId":"js-mb-S121","siteNameZh":"善德寺","siteNameAlt1":"ShanDeSi","latitude":"25.22346","longitude":"121.64735"}],"25.21841,121.64574":[{"nanyangSiteId":"js-mb-S122","siteNameZh":"天和大法師公廟","siteNameAlt1":"TianHeDaFaShiGongMiao","latitude":"25.21841","longitude":"121.64574"}],"25.21422,121.64518":[{"nanyangSiteId":"js-mb-S123","siteNameZh":"天護宮","siteNameAlt1":"TianHuGong","latitude":"25.21422","longitude":"121.64518"}],"25.22171,121.63853":[{"nanyangSiteId":"js-mb-S124","siteNameZh":"鎮英殿","siteNameAlt1":"ZhenYingDian","latitude":"25.22171","longitude":"121.63853"}],"25.22146,121.63896":[{"nanyangSiteId":"js-mb-S125","siteNameZh":"保安宮","siteNameAlt1":"BaoAnGong","latitude":"25.22146","longitude":"121.63896"}],"25.22088,121.63973":[{"nanyangSiteId":"js-mb-S126","siteNameZh":"機盟道院","siteNameAlt1":"JiMengDaoYuan","latitude":"25.22088","longitude":"121.63973"}],"25.22633,121.61439":[{"nanyangSiteId":"js-mb-S127","siteNameZh":"福潭宮","siteNameAlt1":"FuTanGong","latitude":"25.22633","longitude":"121.61439"}],"25.22224,121.60877":[{"nanyangSiteId":"js-mb-S128","siteNameZh":"??","siteNameAlt1":"??","latitude":"25.22224","longitude":"121.60877"}],"25.22425,121.61581":[{"nanyangSiteId":"js-mb-S129","siteNameZh":"田頭田尾土地公","siteNameAlt1":"TianTouTianWeiTuDiGong","latitude":"25.22425","longitude":"121.61581"}],"25.23942,121.59924":[{"nanyangSiteId":"js-mb-S130","siteNameZh":"兩福宮","siteNameAlt1":"LiangFuGong","latitude":"25.23942","longitude":"121.59924"}],"25.23586,121.59287":[{"nanyangSiteId":"js-mb-S131","siteNameZh":"天佛道場","siteNameAlt1":"TianFoDaoChang","latitude":"25.23586","longitude":"121.59287"}],"25.22654,121.63134":[{"nanyangSiteId":"js-mb-S132","siteNameZh":"巧聖宮","siteNameAlt1":"QiaoShengGong","latitude":"25.22654","longitude":"121.63134"}],"25.2208,121.59718":[{"nanyangSiteId":"js-mb-S133","siteNameZh":"福安宮","siteNameAlt1":"FuAnGong","latitude":"25.2208","longitude":"121.59718"}],"25.22142,121.59681":[{"nanyangSiteId":"js-mb-S134","siteNameZh":"姜太公草堂","siteNameAlt1":"JiangTaiGongCaoTang","latitude":"25.22142","longitude":"121.59681"}],"25.20934,121.59986":[{"nanyangSiteId":"js-mb-S135","siteNameZh":"虛空聖寶殿","siteNameAlt1":"XuKongShengBaoDian","latitude":"25.20934","longitude":"121.59986"}],"25.19942,121.59684":[{"nanyangSiteId":"js-mb-S136","siteNameZh":"金法林","siteNameAlt1":"JinFaLin","latitude":"25.19942","longitude":"121.59684"}],"25.18961,121.59089":[{"nanyangSiteId":"js-mb-S137","siteNameZh":"??","siteNameAlt1":"??","latitude":"25.18961","longitude":"121.59089"}],"25.21587,121.61517":[{"nanyangSiteId":"js-mb-S138","siteNameZh":"慈音寺","siteNameAlt1":"CiYinGong","latitude":"25.21587","longitude":"121.61517"}],"25.2147,121.61669":[{"nanyangSiteId":"js-mb-S139","siteNameZh":"南天宮","siteNameAlt1":"NanTianGong","latitude":"25.2147","longitude":"121.61669"}],"25.21431,121.61366":[{"nanyangSiteId":"js-mb-S140","siteNameZh":"順興宮","siteNameAlt1":"ShunXingGong","latitude":"25.21431","longitude":"121.61366"}],"25.21253,121.61239":[{"nanyangSiteId":"js-mb-S141","siteNameZh":"明安宫","siteNameAlt1":"MingAnGong","latitude":"25.21253","longitude":"121.61239"}],"25.20935,121.60589":[{"nanyangSiteId":"js-mb-S142","siteNameZh":"怯羅山大覺寺","siteNameAlt1":"QieLuoShanDaJueSi","latitude":"25.20935","longitude":"121.60589"}],"25.21058,121.61298":[{"nanyangSiteId":"js-mb-S143","siteNameZh":"紫凌宫","siteNameAlt1":"ZiLingGong","latitude":"25.21058","longitude":"121.61298"}],"25.2166,121.63392":[{"nanyangSiteId":"js-mb-S144","siteNameZh":"天宣慈惠行堂","siteNameAlt1":"TianXuanCiHuiXingTang","latitude":"25.2166","longitude":"121.63392"}],"25.21534,121.63326":[{"nanyangSiteId":"js-mb-S145","siteNameZh":"??","siteNameAlt1":"??","latitude":"25.21534","longitude":"121.63326"}],"25.21382,121.62808":[{"nanyangSiteId":"js-mb-S146","siteNameZh":"長興宮","siteNameAlt1":"ChangXingGong","latitude":"25.21382","longitude":"121.62808"}],"25.23498,121.63006":[{"nanyangSiteId":"js-mb-S147","siteNameZh":"七十一","siteNameAlt1":"QiShiYi","latitude":"25.23498","longitude":"121.63006"}]},"repositoryPath":"repositories/taiwan-public","repositoryUrl":"https://github.com/nanyang-temples/taiwan-public","repositoryName":"taiwan-public","repositoryRev":"6c777d58b4d09b7353bd55145fb4552093fb6a7b","projectName":"Survey of religious sites in Jinshan 金山 and Shimen 石門 districts, northeast Taiwan.","description":"This layer is the result of a [FROGBEAR](frogbear.org) workshop titled [\"Space and Cyberspace - Using GIS in the Study of East Asian Religion\"](https://spaceandcyberspace2017.mbingenheimer.net/), that took place June 2017 at [Dharma Drum](https://www.dila.edu.tw/). The images taken during the survey are archived at the [Frogbear Database of Religious Sites in East Asia](https://frogbear.org/app/#/list).\nThe csv and yaml of this Nanyang-temples data layer include 147 religious sites in the districts of Jinshan 金山 and Shimen 石門 districts in northeast Taiwan. All sites were visited and documented by one of three teams:\n* Team 1: Anderl, Christoph; Shen, Lien Fan; Burdorf, Suzanne; Yan, Weiguang 闫伟光\n* Team 2: Lin, Peiying 林佩瑩; Buckelew, Kevin; Seymour, Kelsey; Wu, Jinhui\n* Team 3: Chang, Pi-chun 張碧君; Travis, Travis N.; Chong, Eng Keat William; Li, Xinlu 李昕璐\n\nThe workshop was taught and organized by Simon Wiles, Oliver Streiter, Jenjou Hung 洪振洲, and Marcus Bingenheimer.\n","date":"2023-10-26T12:00:00.000Z","contact":"m.bingenheimer@gmail.com","credits":"[FROGBEAR](frogbear.org), [Marcus Bingenheimer](https://mbingenheimer.net/publications/publications.html)\n","license":{"name":"CC-BY-SA 4.0","url":"https://creativecommons.org/licenses/by-sa/4.0/"}}}