{"dataset":{"id":"01-buddhist_temples_taiwan","records":[{"nanyangSiteId":"tt-mb-0001","siteNameZh":"惟善堂","siteNameAlt1":"Wei Shan Tang","latitude":"25.017958","longitude":"121.527533"},{"nanyangSiteId":"tt-mb-0002","siteNameZh":"惟善堂","siteNameAlt1":"Wei Shan Tang","latitude":"25.017958","longitude":"121.527533"},{"nanyangSiteId":"tt-mb-0003","siteNameZh":"聖靈宮","siteNameAlt1":"Sheng Ling Gong","latitude":"25.017958","longitude":"121.527533"},{"nanyangSiteId":"tt-mb-0004","siteNameZh":"台北市聖靈寺","siteNameAlt1":"Taipei Sheng Ling Si","latitude":"25.017958","longitude":"121.527533"},{"nanyangSiteId":"tt-mb-0005","siteNameZh":"華嚴蓮社﹝草創期 ﹞","siteNameAlt1":"Huayen Lotus Society","latitude":"25.041277","longitude":"121.534613"},{"nanyangSiteId":"tt-mb-0006","siteNameZh":"華嚴蓮社","siteNameAlt1":"Huayen Lotus Society","latitude":"25.040319","longitude":"121.530767"},{"nanyangSiteId":"tt-mb-0007","siteNameZh":"淨土宗佈教資團","siteNameAlt1":"Jing Tu Zong Bu Jiao Zi Tuan","latitude":"25.044908","longitude":"121.52426"},{"nanyangSiteId":"tt-mb-0008","siteNameZh":"淨土宗善導寺","siteNameAlt1":"Jing Tu Zong Shan Dao Si","latitude":"25.044908","longitude":"121.52426"},{"nanyangSiteId":"tt-mb-0009","siteNameZh":"台北市佛教會","siteNameAlt1":"The Buddhist Association of Taipei","latitude":"25.045048","longitude":"121.525169"},{"nanyangSiteId":"tt-mb-0010","siteNameZh":"觀音禪堂","siteNameAlt1":"Guan Yin Chan Tang","latitude":"25.039045","longitude":"121.521758"},{"nanyangSiteId":"tt-mb-0011","siteNameZh":"東和禪寺","siteNameAlt1":"Dong He Chan Si","latitude":"25.039045","longitude":"121.521758"},{"nanyangSiteId":"tt-mb-0012","siteNameZh":"寶藏巖﹝草創期﹞","siteNameAlt1":"Bao Cang Yan","latitude":"25.010484","longitude":"121.533212"},{"nanyangSiteId":"tt-mb-0013","siteNameZh":"寶藏寺","siteNameAlt1":"Bao Cang Si","latitude":"25.010484","longitude":"121.533212"},{"nanyangSiteId":"tt-mb-0014","siteNameZh":"寶藏巖","siteNameAlt1":"Bao Cang Yan","latitude":"25.010484","longitude":"121.533212"},{"nanyangSiteId":"tt-mb-0015","siteNameZh":"淨慧講堂","siteNameAlt1":"Jing Hui Jiang Tang","latitude":"25.027955","longitude":"121.521502"},{"nanyangSiteId":"tt-mb-0016","siteNameZh":"了覺寺","siteNameAlt1":"Liao Jue Si","latitude":"25.025247","longitude":"121.522554"},{"nanyangSiteId":"tt-mb-0017","siteNameZh":"十普寺","siteNameAlt1":"Shi Pu Si","latitude":"25.025247","longitude":"121.522554"},{"nanyangSiteId":"tt-mb-0018","siteNameZh":"光華佛堂","siteNameAlt1":"Guang Hua Fo Tang","latitude":"25.034214","longitude":"121.496359"},{"nanyangSiteId":"tt-mb-0019","siteNameZh":"光華佛堂","siteNameAlt1":"Guang Hua Fo Tang","latitude":"25.036961","longitude":"121.499691"},{"nanyangSiteId":"tt-mb-0020","siteNameZh":"光華寺","siteNameAlt1":"Guang Hua Si","latitude":"25.023949","longitude":"121.515312"},{"nanyangSiteId":"tt-mb-0021","siteNameZh":"通法寺﹝草創期 ﹞","siteNameAlt1":"Tong Fa Si","latitude":"25.026078","longitude":"121.516809"},{"nanyangSiteId":"tt-mb-0022","siteNameZh":"通法寺","siteNameAlt1":"Tong Fa Si","latitude":"25.026078","longitude":"121.516809"},{"nanyangSiteId":"tt-mb-0023","siteNameZh":"寶纈堂","siteNameAlt1":"Bao Xie Tang","latitude":"25.023878","longitude":"121.517781"},{"nanyangSiteId":"tt-mb-0024","siteNameZh":"蓮雲禪苑","siteNameAlt1":"Lian Yun Chan Yuan","latitude":"25.03446","longitude":"121.529749"},{"nanyangSiteId":"tt-mb-0025","siteNameZh":"創見堂人生禪學會","siteNameAlt1":"Chuang Jian Tang Ren Sheng Chan Xue Hui","latitude":"25.045997","longitude":"121.519131"},{"nanyangSiteId":"tt-mb-0026","siteNameZh":"靈山講堂","siteNameAlt1":"Ling Shan Jiang Tang","latitude":"25.046015","longitude":"121.519063"},{"nanyangSiteId":"tt-mb-0027","siteNameZh":"大乘精舍﹝草創期 ﹞","siteNameAlt1":"Da Sheng Jing She","latitude":"25.046055","longitude":"121.512063"},{"nanyangSiteId":"tt-mb-0028","siteNameZh":"大乘精舍﹝草創期 ﹞","siteNameAlt1":"Da Sheng Jing She","latitude":"25.045543","longitude":"121.510718"},{"nanyangSiteId":"tt-mb-0029","siteNameZh":"大乘精舍","siteNameAlt1":"Da Sheng Jing She","latitude":"25.045238","longitude":"121.509972"},{"nanyangSiteId":"tt-mb-0030","siteNameZh":"佛陀教育基金會","siteNameAlt1":"The Corporate Body of the Buddha Educational Foundation","latitude":"25.040538","longitude":"121.525939"},{"nanyangSiteId":"tt-mb-0031","siteNameZh":"寧瑪巴喇榮三乘法林佛學會","siteNameAlt1":"Nyingma Larong Sancheng Falin Buddhist Institute","latitude":"25.025204","longitude":"121.518915"},{"nanyangSiteId":"tt-mb-0032","siteNameZh":"白馬精舍","siteNameAlt1":"Bai Ma Jing She","latitude":"25.047085","longitude":"121.519649"},{"nanyangSiteId":"tt-mb-0033","siteNameZh":"圓通講堂","siteNameAlt1":"Yuan Tong Jiang Tang","latitude":"25.046787","longitude":"121.513983"},{"nanyangSiteId":"tt-mb-0034","siteNameZh":"十方觀音佛堂","siteNameAlt1":"Shi Fang Guan Yin Fo Tang","latitude":"25.043425","longitude":"121.525902"},{"nanyangSiteId":"tt-mb-0035","siteNameZh":"佛燈會","siteNameAlt1":"Fo Deng Hui","latitude":"25.045534","longitude":"121.524838"},{"nanyangSiteId":"tt-mb-0036","siteNameZh":"大雄精舍","siteNameAlt1":"Da Xiong Jing She","latitude":"25.033807","longitude":"121.531957"},{"nanyangSiteId":"tt-mb-0037","siteNameZh":"中華十方準提學會","siteNameAlt1":"Zhong Hua Shi Fang Zhun Ti Xue Hui","latitude":"25.033807","longitude":"121.531957"},{"nanyangSiteId":"tt-mb-0038","siteNameZh":"無極瑤顯宮","siteNameAlt1":"Wu Ji Yao Xian Gong","latitude":"25.02718","longitude":"121.51451"},{"nanyangSiteId":"tt-mb-0039","siteNameZh":"福佛宮","siteNameAlt1":"Fu Fo Gong","latitude":"25.020756","longitude":"121.518837"},{"nanyangSiteId":"tt-mb-0040","siteNameZh":"佛醫研究所","siteNameAlt1":"Fo Yi Yan Jiu Suo","latitude":"25.032593","longitude":"121.520227"},{"nanyangSiteId":"tt-mb-0041","siteNameZh":"南天聯合府慈善堂","siteNameAlt1":"Nan Tian Lian He Fu Ci Shan Tang","latitude":"25.034298","longitude":"121.511546"},{"nanyangSiteId":"tt-mb-0042","siteNameZh":"寧瑪巴格龍寺佛學中心","siteNameAlt1":"Nyingma Ba Ge Long Si Buddhist Center","latitude":"25.038946","longitude":"121.532528"},{"nanyangSiteId":"tt-mb-0043","siteNameZh":"香光尼僧團印儀學苑","siteNameAlt1":"Xiang Guang Ni Seng Tuan Yin Yi Xue Yuan","latitude":"25.040575","longitude":"121.529567"},{"nanyangSiteId":"tt-mb-0044","siteNameZh":"菩提行願學佛會","siteNameAlt1":"Bodhi Heng Yuan Buddhist Association","latitude":"25.031736","longitude":"121.518685"},{"nanyangSiteId":"tt-mb-0045","siteNameZh":"聞思佛學圖書館","siteNameAlt1":"Wen Si Buddhism library","latitude":"25.016925","longitude":"121.531093"},{"nanyangSiteId":"tt-mb-0046","siteNameZh":"佛教盲人文化中心","siteNameAlt1":"Fo Jiao Mang Ren Wen Hua Zhong Xin","latitude":"25.01968","longitude":"121.528636"},{"nanyangSiteId":"tt-mb-0047","siteNameZh":"台灣禪宗佛教會","siteNameAlt1":"Taiwan Zen Buddhist Association","latitude":"25.040575","longitude":"121.529567"},{"nanyangSiteId":"tt-mb-0048","siteNameZh":"中國佛教會","siteNameAlt1":"Chinese Buddhist Association","latitude":"25.045048","longitude":"121.525169"},{"nanyangSiteId":"tt-mb-0049","siteNameZh":"妙音講堂","siteNameAlt1":"Miao Yin Jiang Tang","latitude":"25.045769","longitude":"121.510579"},{"nanyangSiteId":"tt-mb-0050","siteNameZh":"奧克南禪修中心佛學圖書室","siteNameAlt1":"Ao Ke Nan Chan Xiu Zhong Xin Fo Xue Tu Shu Shi","latitude":"25.033858","longitude":"121.531329"},{"nanyangSiteId":"tt-mb-0051","siteNameZh":"慈光社","siteNameAlt1":"Ci Guang She","latitude":"25.031752","longitude":"121.520139"},{"nanyangSiteId":"tt-mb-0052","siteNameZh":"慈音佛堂","siteNameAlt1":"Ci Yin Fo Tang","latitude":"25.020637","longitude":"121.527376"},{"nanyangSiteId":"tt-mb-0053","siteNameZh":"如來禪寺","siteNameAlt1":"Ru Lai Chan Si","latitude":"25.022953","longitude":"121.524238"},{"nanyangSiteId":"tt-mb-0054","siteNameZh":"金光寺","siteNameAlt1":"Jin Guang Si","latitude":"25.026307","longitude":"121.517873"},{"nanyangSiteId":"tt-mb-0055","siteNameZh":"天心紫蓮禪苑","siteNameAlt1":"Tian Xin Zi Lian Chan Yuan","latitude":"25.037093","longitude":"121.532477"},{"nanyangSiteId":"tt-mb-0056","siteNameZh":"大佛殿","siteNameAlt1":"Da Fo Dian","latitude":"25.045274","longitude":"121.510943"},{"nanyangSiteId":"tt-mb-0057","siteNameZh":"須彌山台北佛學院","siteNameAlt1":"Xu Mi Shan Taipei Fo Xue Yuan","latitude":"25.030309","longitude":"121.504247"},{"nanyangSiteId":"tt-mb-0058","siteNameZh":"法鼓德貴學苑","siteNameAlt1":"Dharma Drum Degui Academy","latitude":"25.043836","longitude":"121.510769"},{"nanyangSiteId":"tt-mb-0059","siteNameZh":"法鼓山中正精舍﹝草創期 ﹞","siteNameAlt1":"Dharma Drum Mountain Zhong Zheng Dharma Center","latitude":"25.038018","longitude":"121.528492"},{"nanyangSiteId":"tt-mb-0060","siteNameZh":"法鼓山中正精舍﹝暫不對外開放 ﹞","siteNameAlt1":"Dharma Drum Mountain Zhong Zheng Dharma Center","latitude":"25.038018","longitude":"121.528492"},{"nanyangSiteId":"tt-mb-0061","siteNameZh":"台北地藏淨宗學會","siteNameAlt1":"Taipei Di Cang Pureland Learning Center","latitude":"25.043861","longitude":"121.509918"},{"nanyangSiteId":"tt-mb-0062","siteNameZh":"中台山普泉精舍","siteNameAlt1":"Chung Tai Shan Pu Quan Meditation Center","latitude":"25.067616","longitude":"121.518396"},{"nanyangSiteId":"tt-mb-0063","siteNameZh":"中台山普洲精舍","siteNameAlt1":"Chung Tai Shan Pu Zhou Meditation Center","latitude":"25.045729","longitude":"121.508789"},{"nanyangSiteId":"tt-mb-0064","siteNameZh":"普濟寺﹝草創期﹞","siteNameAlt1":"Pu Ji Si","latitude":"25.050476","longitude":"121.514066"},{"nanyangSiteId":"tt-mb-0065","siteNameZh":"普濟寺﹝草創期 ﹞","siteNameAlt1":"Pu Ji Si","latitude":"25.050477","longitude":"121.514066"},{"nanyangSiteId":"tt-mb-0066","siteNameZh":"台北市普濟寺","siteNameAlt1":"Taipei Pu Ji Si","latitude":"25.050478","longitude":"121.514066"},{"nanyangSiteId":"tt-mb-0067","siteNameZh":"普濟寺長安講堂","siteNameAlt1":"Pu Ji Si Chang An Jiang Tang","latitude":"25.050492","longitude":"121.518397"},{"nanyangSiteId":"tt-mb-0068","siteNameZh":"聖觀佛堂","siteNameAlt1":"Sheng Guan Fo Tang","latitude":"25.054287","longitude":"121.519303"},{"nanyangSiteId":"tt-mb-0069","siteNameZh":"聖觀寺","siteNameAlt1":"Sheng Guan Si","latitude":"25.054287","longitude":"121.519303"},{"nanyangSiteId":"tt-mb-0070","siteNameZh":"龍雲寺","siteNameAlt1":"Long Yun Si","latitude":"25.026078","longitude":"121.516809"},{"nanyangSiteId":"tt-mb-0071","siteNameZh":"菩提講堂","siteNameAlt1":"Pu Ti Jiang Tang","latitude":"25.052163","longitude":"121.52015"},{"nanyangSiteId":"tt-mb-0072","siteNameZh":"平光寺","siteNameAlt1":"Ping Guang Si","latitude":"25.075318","longitude":"121.517651"},{"nanyangSiteId":"tt-mb-0073","siteNameZh":"臨濟宗大橋佈教所","siteNameAlt1":"Lin Ji Zong Da Qiao Bu Jiao Suo","latitude":"25.066961","longitude":"121.509073"},{"nanyangSiteId":"tt-mb-0074","siteNameZh":"勸化堂","siteNameAlt1":"Quan Hua Tang","latitude":"25.066961","longitude":"121.509073"},{"nanyangSiteId":"tt-mb-0075","siteNameZh":"福慶堂","siteNameAlt1":"Fu Qing Tang","latitude":"25.059639","longitude":"121.511857"},{"nanyangSiteId":"tt-mb-0076","siteNameZh":"興善堂","siteNameAlt1":"Xing Shan Tang","latitude":"25.059639","longitude":"121.511857"},{"nanyangSiteId":"tt-mb-0077","siteNameZh":"至善堂","siteNameAlt1":"Zhi Shan Tang","latitude":"25.059639","longitude":"121.511857"},{"nanyangSiteId":"tt-mb-0078","siteNameZh":"台灣佛教道友會","siteNameAlt1":"Taiwan Fo Jiao Dao You Hui","latitude":"25.059491","longitude":"121.514173"},{"nanyangSiteId":"tt-mb-0079","siteNameZh":"靈巖山台北大稻埕念佛會","siteNameAlt1":"Ling Yan Shan Taipei Da Dao Cheng Chanting Society","latitude":"25.053641","longitude":"121.508178"},{"nanyangSiteId":"tt-mb-0080","siteNameZh":"正德佛堂台北分院","siteNameAlt1":"Zheng De Fo Tang Taipei Fen Yuan","latitude":"25.063164","longitude":"121.517261"},{"nanyangSiteId":"tt-mb-0081","siteNameZh":"福德宮","siteNameAlt1":"Fu De Gong","latitude":"25.062258","longitude":"121.509708"},{"nanyangSiteId":"tt-mb-0082","siteNameZh":"天台止觀實踐堂","siteNameAlt1":"Tian Tai Zhi Guan Shi Jian Tang","latitude":"25.05549","longitude":"121.508803"},{"nanyangSiteId":"tt-mb-0083","siteNameZh":"禪淨寺","siteNameAlt1":"Chan Jing Si","latitude":"25.057089","longitude":"121.520227"},{"nanyangSiteId":"tt-mb-0084","siteNameZh":"金斗宮","siteNameAlt1":"Jin Dou Gong","latitude":"25.075401","longitude":"121.511884"},{"nanyangSiteId":"tt-mb-0085","siteNameZh":"真聖堂","siteNameAlt1":"Zhen Sheng Tang","latitude":"25.055476","longitude":"121.512121"},{"nanyangSiteId":"tt-mb-0086","siteNameZh":"大濟佛堂","siteNameAlt1":"Da Ji Fo Tang","latitude":"25.058193","longitude":"121.517982"},{"nanyangSiteId":"tt-mb-0087","siteNameZh":"台北市佛教正覺同修會","siteNameAlt1":"Taipei Fo Jiao Zheng Jue Tong Xiu Hui","latitude":"25.07267","longitude":"121.519153"},{"nanyangSiteId":"tt-mb-0088","siteNameZh":"報安堂","siteNameAlt1":"Bao An Tang","latitude":"25.066793","longitude":"121.515282"},{"nanyangSiteId":"tt-mb-0089","siteNameZh":"行聖宮","siteNameAlt1":"Xing Sheng Gong","latitude":"25.073063","longitude":"121.511902"},{"nanyangSiteId":"tt-mb-0090","siteNameZh":"地藏庵","siteNameAlt1":"Di Cang An","latitude":"25.051175","longitude":"121.513203"},{"nanyangSiteId":"tt-mb-0091","siteNameZh":"廣善堂","siteNameAlt1":"Guang Shan Tang","latitude":"25.071561","longitude":"121.514412"},{"nanyangSiteId":"tt-mb-0092","siteNameZh":"法鼓山大同共修處","siteNameAlt1":"Dharma Drum Mountain Da Tong Practice Center","latitude":"25.069766","longitude":"121.514846"},{"nanyangSiteId":"tt-mb-0093","siteNameZh":"法鼓山大同辦事處","siteNameAlt1":"Dharma Drum Mountain Da Tong Office","latitude":"25.070554","longitude":"121.519053"},{"nanyangSiteId":"tt-mb-0094","siteNameZh":"達香寺","siteNameAlt1":"Da Xiang Si","latitude":"25.050383","longitude":"121.515032"},{"nanyangSiteId":"tt-mb-0095","siteNameZh":"港口奉天宮","siteNameAlt1":"Gang Kou Feng Tian Gong","latitude":"25.058803","longitude":"121.520413"},{"nanyangSiteId":"tt-mb-0096","siteNameZh":"重閣講堂","siteNameAlt1":"Chong Ge Jiang Tang","latitude":"25.050448","longitude":"121.518488"},{"nanyangSiteId":"tt-mb-0097","siteNameZh":"仁德堂","siteNameAlt1":"Ren De Tang","latitude":"25.059727","longitude":"121.508643"},{"nanyangSiteId":"tt-mb-0098","siteNameZh":"慈聖寺","siteNameAlt1":"Ci Sheng Si","latitude":"25.072695","longitude":"121.511451"},{"nanyangSiteId":"tt-mb-0099","siteNameZh":"普安精舍","siteNameAlt1":"Pu An Jing She","latitude":"25.072084","longitude":"121.517207"},{"nanyangSiteId":"tt-mb-0100","siteNameZh":"至妙寺","siteNameAlt1":"Zhi Miao Si","latitude":"25.059472","longitude":"121.515786"},{"nanyangSiteId":"tt-mb-0101","siteNameZh":"生命電視台北生命道場","siteNameAlt1":"Sheng Ming Dian Shi Taipei Sheng Ming Dao Chang","latitude":"25.056793","longitude":"121.512335"},{"nanyangSiteId":"tt-mb-0102","siteNameZh":"寶吉祥佛教文化交流協會","siteNameAlt1":"Bao Ji Xiang Fo Jiao Wen Hua Jiao Liu Xie Hui","latitude":"25.063135","longitude":"121.516946"},{"nanyangSiteId":"tt-mb-0103","siteNameZh":"寧瑪巴南卡穹宗中心","siteNameAlt1":"Nyingma Nan ka Qiong zong Buddhist Center","latitude":"25.065777","longitude":"121.517852"},{"nanyangSiteId":"tt-mb-0104","siteNameZh":"中華敦珠佛學苑","siteNameAlt1":"Zhong Hua Dun Zhu Fo Xue Yuan","latitude":"25.054096","longitude":"121.512908"},{"nanyangSiteId":"tt-mb-0105","siteNameZh":"台北烏金華苑","siteNameAlt1":"Taipei Wu Jin Hua Yuan","latitude":"25.076332","longitude":"121.514896"},{"nanyangSiteId":"tt-mb-0106","siteNameZh":"佛頂山朝聖寺台北總會","siteNameAlt1":"Fo Ding Shan Chao Sheng Si Taipei Zong Hui","latitude":"25.050089","longitude":"121.51658"},{"nanyangSiteId":"tt-mb-0107","siteNameZh":"孔雀明王法共修道場","siteNameAlt1":"Kong Que Ming Wang Fa Gong Xiu Dao Chang","latitude":"25.054626","longitude":"121.514979"},{"nanyangSiteId":"tt-mb-0108","siteNameZh":"圓山蓮社","siteNameAlt1":"Yuan Shan Lian She","latitude":"25.072063","longitude":"121.518166"},{"nanyangSiteId":"tt-mb-0109","siteNameZh":"大同悟覺精舍","siteNameAlt1":"Da Tong Wu Jue Jing She","latitude":"25.052742","longitude":"121.518617"},{"nanyangSiteId":"tt-mb-0110","siteNameZh":"西密佛教雲慈正覺會台北佛堂","siteNameAlt1":"Xi Mi Fo Jiao Yun Ci Zheng Jue Hui Taipei Fo Tang","latitude":"25.059779","longitude":"121.518424"},{"nanyangSiteId":"tt-mb-0111","siteNameZh":"台北正覺第二講堂","siteNameAlt1":"Taipei Zheng Jue Di Er Jiang Tang","latitude":"25.072497","longitude":"121.519093"},{"nanyangSiteId":"tt-mb-0112","siteNameZh":"創價學會大龍峒講堂","siteNameAlt1":"Chuang Jia Xue Hui Da Long Tong Jiang Tang","latitude":"25.072878","longitude":"121.517311"},{"nanyangSiteId":"tt-mb-0113","siteNameZh":"金源寺","siteNameAlt1":"Jin Yuan Si","latitude":"25.048931","longitude":"121.511419"},{"nanyangSiteId":"tt-mb-0114","siteNameZh":"慧日講堂","siteNameAlt1":"Light of Wisdom Dharma Hall","latitude":"25.049762","longitude":"121.541372"},{"nanyangSiteId":"tt-mb-0115","siteNameZh":"圓山精舍","siteNameAlt1":"Yuan Shan Jing She","latitude":"25.072208","longitude":"121.520783"},{"nanyangSiteId":"tt-mb-0116","siteNameZh":"臨濟護國禪寺","siteNameAlt1":"Lin Ji Hu Guo Chan Si","latitude":"25.072208","longitude":"121.520783"},{"nanyangSiteId":"tt-mb-0117","siteNameZh":"中台山普觀精舍","siteNameAlt1":"Chung Tai Shan Pu Guan Meditation Center","latitude":"25.0845","longitude":"121.549199"},{"nanyangSiteId":"tt-mb-0118","siteNameZh":"中台山普觀精舍","siteNameAlt1":"Chung Tai Shan Pu Guan Meditation Center","latitude":"25.081778","longitude":"121.590558"},{"nanyangSiteId":"tt-mb-0119","siteNameZh":"中台山普圓精舍","siteNameAlt1":"Chung Tai Shan Pu Yuan Meditation Center","latitude":"25.068272","longitude":"121.52206"},{"nanyangSiteId":"tt-mb-0120","siteNameZh":"觀音寺","siteNameAlt1":"Guan Yin Si","latitude":"25.086079","longitude":"121.5554"},{"nanyangSiteId":"tt-mb-0121","siteNameZh":"西方寶剎","siteNameAlt1":"Xi Fang Bao Cha","latitude":"25.086079","longitude":"121.5554"},{"nanyangSiteId":"tt-mb-0122","siteNameZh":"劍潭寺","siteNameAlt1":"Jian Tan Si","latitude":"25.086079","longitude":"121.5554"},{"nanyangSiteId":"tt-mb-0123","siteNameZh":"劍潭古寺","siteNameAlt1":"Jian Tan Gu Si","latitude":"25.086079","longitude":"121.5554"},{"nanyangSiteId":"tt-mb-0124","siteNameZh":"大忠宮","siteNameAlt1":"Da Zhong Gong","latitude":"25.080731","longitude":"121.52647"},{"nanyangSiteId":"tt-mb-0125","siteNameZh":"台北市蓮友念佛團","siteNameAlt1":"Taipei Lian You Nian Fo Tuan","latitude":"25.050096","longitude":"121.541919"},{"nanyangSiteId":"tt-mb-0126","siteNameZh":"金剛寺","siteNameAlt1":"Jin Gang Si","latitude":"25.081077","longitude":"121.525999"},{"nanyangSiteId":"tt-mb-0127","siteNameZh":"本願山圓通巖","siteNameAlt1":"Ben Yuan Shan Yuan Tong Yan","latitude":"25.081605","longitude":"121.528691"},{"nanyangSiteId":"tt-mb-0128","siteNameZh":"圓山地藏庵","siteNameAlt1":"Yuan Shan Di Cang An","latitude":"25.073039","longitude":"121.520705"},{"nanyangSiteId":"tt-mb-0129","siteNameZh":"圓玄學社","siteNameAlt1":"Yuan Xuan Xue She","latitude":"25.055565","longitude":"121.533522"},{"nanyangSiteId":"tt-mb-0130","siteNameZh":"妙道院","siteNameAlt1":"Miao Dao Yuan","latitude":"25.064991","longitude":"121.528814"},{"nanyangSiteId":"tt-mb-0131","siteNameZh":"台北行天宮","siteNameAlt1":"Taipei Xing Tian Gong","latitude":"25.063091","longitude":"121.533939"},{"nanyangSiteId":"tt-mb-0132","siteNameZh":"大覺禪舍","siteNameAlt1":"Da Jue Chan She","latitude":"25.050419","longitude":"121.52419"},{"nanyangSiteId":"tt-mb-0133","siteNameZh":"靖心殿","siteNameAlt1":"Jing Xin Dian","latitude":"25.081187","longitude":"121.527913"},{"nanyangSiteId":"tt-mb-0134","siteNameZh":"圓山藥師寺","siteNameAlt1":"Yuan Shan Yao Shi Si","latitude":"25.081265","longitude":"121.527216"},{"nanyangSiteId":"tt-mb-0135","siteNameZh":"慈雲寺北區護法會","siteNameAlt1":"Ci Yun Si Bei Qu Hu Fa Hui","latitude":"25.078935","longitude":"121.545822"},{"nanyangSiteId":"tt-mb-0136","siteNameZh":"明山寺","siteNameAlt1":"Ming Shan Si","latitude":"25.086399","longitude":"121.553703"},{"nanyangSiteId":"tt-mb-0137","siteNameZh":"法鼓山中山精舍﹝草創期 ﹞","siteNameAlt1":"Dharma Drum Mountain Zhong Shan Dharma Center","latitude":"25.062903","longitude":"121.525392"},{"nanyangSiteId":"tt-mb-0138","siteNameZh":"法鼓山中山精舍","siteNameAlt1":"Dharma Drum Mountain Zhong Shan Dharma Center","latitude":"25.062903","longitude":"121.525392"},{"nanyangSiteId":"tt-mb-0139","siteNameZh":"慈濟中山共修處","siteNameAlt1":"Ci Ji Zhong Shan Gong Xiu Chu","latitude":"25.056193","longitude":"121.530336"},{"nanyangSiteId":"tt-mb-0140","siteNameZh":"慈音居士會","siteNameAlt1":"Ci Yin Ju Shi Hui","latitude":"25.077722","longitude":"121.545542"},{"nanyangSiteId":"tt-mb-0141","siteNameZh":"靜修堂","siteNameAlt1":"Jing Xiu Tang","latitude":"25.058979","longitude":"121.526224"},{"nanyangSiteId":"tt-mb-0142","siteNameZh":"中國藏密薩迦佛學研究會","siteNameAlt1":"Cang Mi Sa Jia Fo Xue Yan Jiu Hui (R.O.C.)","latitude":"25.048592","longitude":"121.532446"},{"nanyangSiteId":"tt-mb-0143","siteNameZh":"中華佛教青年會","siteNameAlt1":"Zhong Hua Buddhist Young Buddhists Society","latitude":"25.048222","longitude":"121.534001"},{"nanyangSiteId":"tt-mb-0144","siteNameZh":"四面佛","siteNameAlt1":"Si Mian Fo","latitude":"25.054683","longitude":"121.533372"},{"nanyangSiteId":"tt-mb-0145","siteNameZh":"慈濟中山聯絡處","siteNameAlt1":"Ci Ji Zhong Shan Lian Luo Chu","latitude":"25.064388","longitude":"121.536546"},{"nanyangSiteId":"tt-mb-0146","siteNameZh":"正音精舍","siteNameAlt1":"Zheng Yin Jing She","latitude":"25.08831","longitude":"121.536641"},{"nanyangSiteId":"tt-mb-0147","siteNameZh":"台北市佛教青年會","siteNameAlt1":"Taipei Buddhist Young Buddhists Society","latitude":"25.047605","longitude":"121.529646"},{"nanyangSiteId":"tt-mb-0148","siteNameZh":"佛祖寺","siteNameAlt1":"Fo Zu Si","latitude":"25.082315","longitude":"121.527908"},{"nanyangSiteId":"tt-mb-0149","siteNameZh":"正願寺","siteNameAlt1":"Zheng Yuan Si","latitude":"25.087701","longitude":"121.551344"},{"nanyangSiteId":"tt-mb-0150","siteNameZh":"慈德佛堂","siteNameAlt1":"Ci De Fo Tang","latitude":"25.059237","longitude":"121.531869"},{"nanyangSiteId":"tt-mb-0151","siteNameZh":"祇園精舍","siteNameAlt1":"Qi Yuan Jing She","latitude":"25.058132","longitude":"121.535767"},{"nanyangSiteId":"tt-mb-0152","siteNameZh":"普賢講堂","siteNameAlt1":"Pu Xian Jiang Tang","latitude":"25.062513","longitude":"121.525203"},{"nanyangSiteId":"tt-mb-0153","siteNameZh":"妙吉祥佛學會","siteNameAlt1":"Miao Ji Xiang Buddhist Institute","latitude":"25.059528","longitude":"121.524858"},{"nanyangSiteId":"tt-mb-0154","siteNameZh":"智泉講堂","siteNameAlt1":"Zhi Quan Jiang Tang","latitude":"25.060754","longitude":"121.541782"},{"nanyangSiteId":"tt-mb-0155","siteNameZh":"佛法山海天禪寺","siteNameAlt1":"Fo Fa Shan Hai Tian Chan Si","latitude":"25.053669","longitude":"121.543737"},{"nanyangSiteId":"tt-mb-0156","siteNameZh":"法爾禪修中心","siteNameAlt1":"Fa Er Chan Xiu Zhong Xin","latitude":"25.049199","longitude":"121.535246"},{"nanyangSiteId":"tt-mb-0157","siteNameZh":"覺風學苑","siteNameAlt1":"Jue Feng Xue Yuan","latitude":"25.050621","longitude":"121.530659"},{"nanyangSiteId":"tt-mb-0158","siteNameZh":"大願佛教蓮社","siteNameAlt1":"Da Yuan Buddhist Lotus Society","latitude":"25.062206","longitude":"121.536022"},{"nanyangSiteId":"tt-mb-0159","siteNameZh":"妙持學苑","siteNameAlt1":"Miao Chi Xue Yuan","latitude":"25.063766","longitude":"121.524915"},{"nanyangSiteId":"tt-mb-0160","siteNameZh":"台北竹巴噶舉佛學中心","siteNameAlt1":"Taipei Zhu Ba Kagyu Buddhist Center","latitude":"25.066757","longitude":"121.526115"},{"nanyangSiteId":"tt-mb-0161","siteNameZh":"光明王寺台北道場","siteNameAlt1":"Guang Ming Wang Si Taipei Dao Chang","latitude":"25.057533","longitude":"121.526737"},{"nanyangSiteId":"tt-mb-0162","siteNameZh":"竹巴噶舉噶爾謝祖佛學中心","siteNameAlt1":"Zhu Ba Kagyu Ga Er Xie Zu Buddhist Center","latitude":"25.066447","longitude":"121.53638"},{"nanyangSiteId":"tt-mb-0163","siteNameZh":"大悲精舍","siteNameAlt1":"Da Bei Jing She","latitude":"25.065622","longitude":"121.535607"},{"nanyangSiteId":"tt-mb-0164","siteNameZh":"大直普惠中心","siteNameAlt1":"Da Zhi Pu Hui Zhong Xin","latitude":"25.083278","longitude":"121.54797"},{"nanyangSiteId":"tt-mb-0165","siteNameZh":"台北市寧瑪白玉大圓滿佛學會","siteNameAlt1":"Taipei Nyingma Palyul Da Yuan Man Buddhist Institute","latitude":"25.051148","longitude":"121.524742"},{"nanyangSiteId":"tt-mb-0166","siteNameZh":"桑千偉薩卻林佛學研究會","siteNameAlt1":"Sang Qian Wei Sa Que Lin Fo Xue Yan Jiu Hui","latitude":"25.057059","longitude":"121.522013"},{"nanyangSiteId":"tt-mb-0167","siteNameZh":"台灣噶舉佛學院","siteNameAlt1":"Taiwan Kagyu Fo Xue Yuan","latitude":"25.058597","longitude":"121.529499"},{"nanyangSiteId":"tt-mb-0168","siteNameZh":"台北敏卓林中心","siteNameAlt1":"Taipei Mindrolling Center","latitude":"25.055936","longitude":"121.531454"},{"nanyangSiteId":"tt-mb-0169","siteNameZh":"噶陀十方尊聖佛學會","siteNameAlt1":"Kathok Choklay Namgyal Buddhist Institute","latitude":"25.054402","longitude":"121.543168"},{"nanyangSiteId":"tt-mb-0170","siteNameZh":"中華民國密宗薩迦佛學會","siteNameAlt1":"Sakya Buddhist Institute (R.O.C.)","latitude":"25.060457","longitude":"121.5322"},{"nanyangSiteId":"tt-mb-0171","siteNameZh":"護國大悲院","siteNameAlt1":"Hu Guo Da Bei Yuan","latitude":"25.050032","longitude":"121.524937"},{"nanyangSiteId":"tt-mb-0172","siteNameZh":"修元禪院","siteNameAlt1":"Xiu Yuan Chan Yuan","latitude":"25.064337","longitude":"121.534626"},{"nanyangSiteId":"tt-mb-0173","siteNameZh":"菩提林佛堂","siteNameAlt1":"Pu Ti Lin Fo Tang","latitude":"25.058465","longitude":"121.529366"},{"nanyangSiteId":"tt-mb-0174","siteNameZh":"雲山寺","siteNameAlt1":"Yun Shan Si","latitude":"25.050605","longitude":"121.525467"},{"nanyangSiteId":"tt-mb-0175","siteNameZh":"圓覺講堂","siteNameAlt1":"Yuan Jue Jiang Tang","latitude":"25.057184","longitude":"121.531406"},{"nanyangSiteId":"tt-mb-0176","siteNameZh":"淨華禪苑","siteNameAlt1":"Jing Hua Chan Yuan","latitude":"25.058579","longitude":"121.531382"},{"nanyangSiteId":"tt-mb-0177","siteNameZh":"慧德講堂","siteNameAlt1":"Hui De Jiang Tang","latitude":"25.048602","longitude":"121.534125"},{"nanyangSiteId":"tt-mb-0178","siteNameZh":"法雨同修會","siteNameAlt1":"Fa Yu Tong Xiu Hui","latitude":"25.066886","longitude":"121.535592"},{"nanyangSiteId":"tt-mb-0179","siteNameZh":"觀世音講堂","siteNameAlt1":"Guan Shi Yin Jiang Tang","latitude":"25.046726","longitude":"121.531853"},{"nanyangSiteId":"tt-mb-0180","siteNameZh":"法華講堂","siteNameAlt1":"Fa Hua Jiang Tang","latitude":"25.05666","longitude":"121.52789"},{"nanyangSiteId":"tt-mb-0181","siteNameZh":"蓮池庵","siteNameAlt1":"Lian Chi An","latitude":"25.04834","longitude":"121.521133"},{"nanyangSiteId":"tt-mb-0182","siteNameZh":"中華民國佛教青年會","siteNameAlt1":"R.O.C. Buddhist Young Buddhists Society","latitude":"25.048394","longitude":"121.527396"},{"nanyangSiteId":"tt-mb-0183","siteNameZh":"噶陀佛學院","siteNameAlt1":"Kathok Buddhist Institute","latitude":"25.046051","longitude":"121.543662"},{"nanyangSiteId":"tt-mb-0184","siteNameZh":"創價學會講堂","siteNameAlt1":"Chuang Jia Xue Hui Jiang Tang","latitude":"25.060954","longitude":"121.52443"},{"nanyangSiteId":"tt-mb-0185","siteNameZh":"創價學會錦州文化會館師弟會堂","siteNameAlt1":"Chuang Jia Xue Hui Jin Zhou Wen Hua Hui Guan Shi Di Hui Tang","latitude":"25.060954","longitude":"121.52443"},{"nanyangSiteId":"tt-mb-0186","siteNameZh":"創價學會錦州文化會館藝文會堂","siteNameAlt1":"Chuang Jia Xue Hui Jin Zhou Wen Hua Hui Guan Yi Wen Hui Tang","latitude":"25.061403","longitude":"121.52456"},{"nanyangSiteId":"tt-mb-0187","siteNameZh":"中華大乘佛學會長安教室","siteNameAlt1":"Zhong Hua Da Sheng Fo Xue Hui Chang An Jiao Shi","latitude":"25.048596","longitude":"121.534007"},{"nanyangSiteId":"tt-mb-0188","siteNameZh":"中華大乘佛學會","siteNameAlt1":"Zhong Hua Da Cheng Buddhist Institute","latitude":"25.048596","longitude":"121.534007"},{"nanyangSiteId":"tt-mb-0189","siteNameZh":"生命電視台北中心","siteNameAlt1":"Sheng Ming Dian Shi Taipei Zhong Xin","latitude":"25.047195","longitude":"121.532305"},{"nanyangSiteId":"tt-mb-0190","siteNameZh":"創價學會合江講堂","siteNameAlt1":"Chuang Jia Xue Hui He Jiang Jiang Tang","latitude":"25.055366","longitude":"121.539307"},{"nanyangSiteId":"tt-mb-0191","siteNameZh":"大自在講堂","siteNameAlt1":"Da Zi Zai Jiang Tang","latitude":"25.054418","longitude":"121.54254"},{"nanyangSiteId":"tt-mb-0192","siteNameZh":"萬佛山慈明講堂","siteNameAlt1":"Wan Fo Shan Ci Ming Jiang Tang","latitude":"25.048106","longitude":"121.543164"},{"nanyangSiteId":"tt-mb-0193","siteNameZh":"四諦講修佛學會","siteNameAlt1":"Si Di Jiang Xiu Buddhist Institute","latitude":"25.055927","longitude":"121.523375"},{"nanyangSiteId":"tt-mb-0194","siteNameZh":"法鼓山中山共修處﹝南京東路 ﹞","siteNameAlt1":"Dharma Drum Mountain Zhong Shan Practice Center","latitude":"25.051499","longitude":"121.535967"},{"nanyangSiteId":"tt-mb-0195","siteNameZh":"法鼓山中山共修處﹝松江路 ﹞","siteNameAlt1":"Dharma Drum Mountain Zhong Shan Practice Center","latitude":"25.047213","longitude":"121.533404"},{"nanyangSiteId":"tt-mb-0196","siteNameZh":"無所得佛堂","siteNameAlt1":"Wu Suo De Fo Tang","latitude":"25.056666","longitude":"121.521097"},{"nanyangSiteId":"tt-mb-0197","siteNameZh":"法光寺","siteNameAlt1":"Fa Kuang Temple","latitude":"25.049908","longitude":"121.556634"},{"nanyangSiteId":"tt-mb-0198","siteNameZh":"佛光山普門精舍","siteNameAlt1":"Fo Guang Shan Pu Men Temple Meditation Center","latitude":"25.017668","longitude":"121.53181"},{"nanyangSiteId":"tt-mb-0199","siteNameZh":"佛光山台北別院","siteNameAlt1":"Fo Guang Shan Taipei Branch Monastery","latitude":"25.050621","longitude":"121.530659"},{"nanyangSiteId":"tt-mb-0200","siteNameZh":"佛光山普門寺","siteNameAlt1":"Fo Guang Shan Pu Men Temple","latitude":"25.061805","longitude":"121.546404"},{"nanyangSiteId":"tt-mb-0201","siteNameZh":"台北佛教蓮社","siteNameAlt1":"Taipei Buddhist Lotus Society","latitude":"25.052962","longitude":"121.559533"},{"nanyangSiteId":"tt-mb-0202","siteNameZh":"大緣精舍","siteNameAlt1":"Da Yuan Jing She","latitude":"25.059953","longitude":"121.564353"},{"nanyangSiteId":"tt-mb-0203","siteNameZh":"慈濟松山聯絡處","siteNameAlt1":"Ci Ji Song Shan Lian Luo Chu","latitude":"25.05121","longitude":"121.563734"},{"nanyangSiteId":"tt-mb-0204","siteNameZh":"佛菩提講堂","siteNameAlt1":"Fo Pu Ti Jiang Tang","latitude":"25.048025","longitude":"121.5466"},{"nanyangSiteId":"tt-mb-0205","siteNameZh":"無極太上玄門聖佛宗千圓光佛學會","siteNameAlt1":"Wu Ji Tai Shang Xuan Men Sheng Fo Zong Qian Yuan Guang Buddhist Institute","latitude":"25.049349","longitude":"121.567894"},{"nanyangSiteId":"tt-mb-0206","siteNameZh":"淨宗共修會","siteNameAlt1":"Jing Zong Gong Xiu Hui","latitude":"25.049553","longitude":"121.573722"},{"nanyangSiteId":"tt-mb-0207","siteNameZh":"本願山松山念佛會","siteNameAlt1":"Ben Yuan Shan Song Shan Chanting Society","latitude":"25.046853","longitude":"121.559945"},{"nanyangSiteId":"tt-mb-0208","siteNameZh":"妙音精舍","siteNameAlt1":"Miao Yin Jing She","latitude":"25.053905","longitude":"121.561959"},{"nanyangSiteId":"tt-mb-0209","siteNameZh":"延壽精舍","siteNameAlt1":"Yan Shou Jing She","latitude":"25.051685","longitude":"121.561906"},{"nanyangSiteId":"tt-mb-0210","siteNameZh":"萬國道德講堂","siteNameAlt1":"Wan Guo Dao De Jiang Tang","latitude":"25.053948","longitude":"121.563121"},{"nanyangSiteId":"tt-mb-0211","siteNameZh":"品慧講堂","siteNameAlt1":"Pin Hui Jiang Tang","latitude":"25.066226","longitude":"121.544584"},{"nanyangSiteId":"tt-mb-0212","siteNameZh":"貝瑪禪密佛學中心","siteNameAlt1":"Bei Ma Chan Mi Buddhist Center","latitude":"25.048895","longitude":"121.554768"},{"nanyangSiteId":"tt-mb-0213","siteNameZh":"藏海學會","siteNameAlt1":"Cang Hai Xue Hui","latitude":"25.048316","longitude":"121.553213"},{"nanyangSiteId":"tt-mb-0214","siteNameZh":"經續法林","siteNameAlt1":"Jing Xu Fa Lin","latitude":"25.048316","longitude":"121.553213"},{"nanyangSiteId":"tt-mb-0215","siteNameZh":"中華藏密大手印五支佛學會","siteNameAlt1":"Zhong Hua Cang Mi Da Shou Yin Wu Zhi Buddhist Institute","latitude":"25.051003","longitude":"121.569635"},{"nanyangSiteId":"tt-mb-0216","siteNameZh":"聖弟子法脈中心","siteNameAlt1":"Sheng Di Zi Fa Mai Zhong Xin","latitude":"25.053506","longitude":"121.562559"},{"nanyangSiteId":"tt-mb-0217","siteNameZh":"諾那華藏精舍台北總舍","siteNameAlt1":"Nuo Na Hua Cang Jing She Taipei Zong She","latitude":"25.05169","longitude":"121.559411"},{"nanyangSiteId":"tt-mb-0218","siteNameZh":"福智佛教基金會﹝草創期 ﹞","siteNameAlt1":"Fu Zhi Fo Jiao Ji Jin Hui","latitude":"25.040538","longitude":"121.525939"},{"nanyangSiteId":"tt-mb-0219","siteNameZh":"福智佛教基金會﹝民生東路﹞","siteNameAlt1":"Fu Zhi Fo Jiao Ji Jin Hui","latitude":"25.074065","longitude":"121.60567"},{"nanyangSiteId":"tt-mb-0220","siteNameZh":"福智佛教基金會","siteNameAlt1":"Fu Zhi Fo Jiao Ji Jin Hui","latitude":"25.051721","longitude":"121.555195"},{"nanyangSiteId":"tt-mb-0221","siteNameZh":"台灣佐欽大圓滿佛學會","siteNameAlt1":"Taiwan Zuo Qin Da Yuan Man Buddhist Institute","latitude":"25.050708","longitude":"121.562661"},{"nanyangSiteId":"tt-mb-0222","siteNameZh":"法鼓山松山中山共修處","siteNameAlt1":"Dharma Drum Mountain Sung Shan Zhong Shan Practice Center","latitude":"25.054945","longitude":"121.547529"},{"nanyangSiteId":"tt-mb-0223","siteNameZh":"法鼓山松山共修處﹝民生東路 ﹞","siteNameAlt1":"Dharma Drum Mountain Sung Shan Practice Center","latitude":"25.058236","longitude":"121.556543"},{"nanyangSiteId":"tt-mb-0224","siteNameZh":"法鼓山松山共修處﹝八德路 ﹞","siteNameAlt1":"Dharma Drum Mountain Sung Shan Practice Center","latitude":"25.046725","longitude":"121.560054"},{"nanyangSiteId":"tt-mb-0225","siteNameZh":"法鼓山松山辦事處","siteNameAlt1":"Dharma Drum Mountain Sung Shan Office","latitude":"25.058236","longitude":"121.556543"},{"nanyangSiteId":"tt-mb-0226","siteNameZh":"詠給菩提學苑","siteNameAlt1":"Yong Gei Pu Ti Xue Yuan","latitude":"25.047926","longitude":"121.557979"},{"nanyangSiteId":"tt-mb-0227","siteNameZh":"台北市放生念佛會","siteNameAlt1":"Taipei Fang sheng Chanting Society","latitude":"25.045798","longitude":"121.553694"},{"nanyangSiteId":"tt-mb-0228","siteNameZh":"生命電視台北生命學院","siteNameAlt1":"Sheng Ming Dian Shi Taipei Sheng Ming Xue Yuan","latitude":"25.058025","longitude":"121.562401"},{"nanyangSiteId":"tt-mb-0229","siteNameZh":"台北淨宗學會","siteNameAlt1":"Amitabha Buddhist Society of Taipei","latitude":"25.052566","longitude":"121.545535"},{"nanyangSiteId":"tt-mb-0230","siteNameZh":"台北市宗南學佛會","siteNameAlt1":"UTBF Trungram Dharma Center: Taipei","latitude":"25.053174","longitude":"121.554287"},{"nanyangSiteId":"tt-mb-0231","siteNameZh":"中華佛心功德會總會","siteNameAlt1":"Zhong hua Buddha Heart World Headquarters","latitude":"25.051384","longitude":"121.556576"},{"nanyangSiteId":"tt-mb-0232","siteNameZh":"靈巖山台北松山念佛會","siteNameAlt1":"Ling Yan Shan Taipei Song Shan Chanting Society","latitude":"25.052577","longitude":"121.546642"},{"nanyangSiteId":"tt-mb-0233","siteNameZh":"虛空法林","siteNameAlt1":"Xu Kong Fa Lin","latitude":"25.048513","longitude":"121.555437"},{"nanyangSiteId":"tt-mb-0234","siteNameZh":"貝瑪禪密佛學會","siteNameAlt1":"Bei Ma Chan Mi Buddhist Institute","latitude":"25.058972","longitude":"121.557283"},{"nanyangSiteId":"tt-mb-0235","siteNameZh":"直貢噶舉竹節佛學會","siteNameAlt1":"Zhi Gong Kagyu Zhu Jie Buddhist Institute","latitude":"25.058323","longitude":"121.558721"},{"nanyangSiteId":"tt-mb-0236","siteNameZh":"和平法盛洲","siteNameAlt1":"He Ping Fa Cheng Zhou","latitude":"25.057992","longitude":"121.554265"},{"nanyangSiteId":"tt-mb-0237","siteNameZh":"寧瑪巴尼札佛學會","siteNameAlt1":"Nyingma Ni zha Buddhist Institute","latitude":"25.064423","longitude":"121.546845"},{"nanyangSiteId":"tt-mb-0238","siteNameZh":"台北市佛教全德廣場","siteNameAlt1":"Taipei Buddhist Chuan-der Garden","latitude":"25.046096","longitude":"121.557942"},{"nanyangSiteId":"tt-mb-0239","siteNameZh":"台北市護持大乘法脈基金會","siteNameAlt1":"Taipei Hu Chi Da Sheng Fa Mai Ji Jin Hui","latitude":"25.051636","longitude":"121.544817"},{"nanyangSiteId":"tt-mb-0240","siteNameZh":"中台山普賢精舍﹝草創期 ﹞","siteNameAlt1":"Chung Tai Shan Pu Xian Meditation Center (Taipei)","latitude":"25.057202","longitude":"121.583408"},{"nanyangSiteId":"tt-mb-0241","siteNameZh":"中台山普賢精舍","siteNameAlt1":"Chung Tai Shan Pu Xian Meditation Center (Taipei)","latitude":"25.059229","longitude":"121.563822"},{"nanyangSiteId":"tt-mb-0242","siteNameZh":"台北市藍毗尼佛學會","siteNameAlt1":"Lumbini Buddhism Center","latitude":"25.051204","longitude":"121.562979"},{"nanyangSiteId":"tt-mb-0243","siteNameZh":"台北市菩提果學佛會","siteNameAlt1":"Taipei Pu Ti Guo Xue Fo Hui","latitude":"25.059534","longitude":"121.548171"},{"nanyangSiteId":"tt-mb-0244","siteNameZh":"台北市密宗薩迦塔爾畢楊澤學會","siteNameAlt1":"Taipei Mi Zong Sa Jia Ta Er Bi Yang Ze Xue Hui","latitude":"25.050282","longitude":"121.568659"},{"nanyangSiteId":"tt-mb-0245","siteNameZh":"清涼蘭若","siteNameAlt1":"Qing Liang Lan Ruo","latitude":"25.050139","longitude":"121.573508"},{"nanyangSiteId":"tt-mb-0246","siteNameZh":"攝山精舍","siteNameAlt1":"She Shan Jing She","latitude":"25.046414","longitude":"121.557374"},{"nanyangSiteId":"tt-mb-0247","siteNameZh":"台北金剛乘學會","siteNameAlt1":"Taipei Vajrayana Buddhist Institute","latitude":"25.051626","longitude":"121.545593"},{"nanyangSiteId":"tt-mb-0248","siteNameZh":"藥師寺","siteNameAlt1":"Yao Shi Si","latitude":"25.051644","longitude":"121.562515"},{"nanyangSiteId":"tt-mb-0249","siteNameZh":"國際佛學研究中心","siteNameAlt1":"International Buddhist Center","latitude":"25.051264","longitude":"121.561571"},{"nanyangSiteId":"tt-mb-0250","siteNameZh":"佛國寺","siteNameAlt1":"Fo Guo Si","latitude":"25.051856","longitude":"121.556581"},{"nanyangSiteId":"tt-mb-0251","siteNameZh":"自生遍在佛學中心-台北","siteNameAlt1":"Taipei Zi Sheng Bian Zai Buddhist Center","latitude":"25.059212","longitude":"121.555219"},{"nanyangSiteId":"tt-mb-0252","siteNameZh":"台北安祥禪學會","siteNameAlt1":"Taipei An Xiang Chan Xue Hui","latitude":"25.050813","longitude":"121.558898"},{"nanyangSiteId":"tt-mb-0253","siteNameZh":"創價學會德旺講堂","siteNameAlt1":"Chuang Jia Xue Hui De Wang Jiang Tang","latitude":"25.049021","longitude":"121.567345"},{"nanyangSiteId":"tt-mb-0254","siteNameZh":"生命電視台北東區中心","siteNameAlt1":"Sheng Ming Dian Shi Taipei Dong Qu Zhong Xin","latitude":"25.049525","longitude":"121.566601"},{"nanyangSiteId":"tt-mb-0255","siteNameZh":"法鼓山安和分院","siteNameAlt1":"Dharma Drum Mountain Anho Branch Monastery","latitude":"25.039109","longitude":"121.550288"},{"nanyangSiteId":"tt-mb-0256","siteNameZh":"慕欽講堂","siteNameAlt1":"Mu Qin Jiang Tang","latitude":"25.027155","longitude":"121.524397"},{"nanyangSiteId":"tt-mb-0257","siteNameZh":"中台山普得精舍","siteNameAlt1":"Chung Tai Shan Pu De Meditation Center","latitude":"25.025414","longitude":"121.540922"},{"nanyangSiteId":"tt-mb-0258","siteNameZh":"曹洞宗南門佈教所","siteNameAlt1":"Cao Dong Zong Nan Men Bu Jiao Suo","latitude":"25.029207","longitude":"121.523673"},{"nanyangSiteId":"tt-mb-0259","siteNameZh":"圓通閣","siteNameAlt1":"Yuan Tong Ge","latitude":"25.029207","longitude":"121.523673"},{"nanyangSiteId":"tt-mb-0260","siteNameZh":"台北市圓通學苑","siteNameAlt1":"Taipei Yuan Tong Xue Yuan","latitude":"25.029207","longitude":"121.523673"},{"nanyangSiteId":"tt-mb-0261","siteNameZh":"法雲寺","siteNameAlt1":"Fa Yun Si","latitude":"25.034269","longitude":"121.533524"},{"nanyangSiteId":"tt-mb-0262","siteNameZh":"九龍蓮社","siteNameAlt1":"Jiu Long Lian She","latitude":"25.035179","longitude":"121.547796"},{"nanyangSiteId":"tt-mb-0263","siteNameZh":"觀音禪院","siteNameAlt1":"Guan Yin Chan Yuan","latitude":"25.036932","longitude":"121.533233"},{"nanyangSiteId":"tt-mb-0264","siteNameZh":"佛藏山台北文殊院","siteNameAlt1":"Fo Cang Shan Taipei Wen Shu Yuan","latitude":"25.021335","longitude":"121.53057"},{"nanyangSiteId":"tt-mb-0265","siteNameZh":"豐川分靈法務所","siteNameAlt1":"Feng Chuan Fen Ling Fa Wu Suo","latitude":"25.039357","longitude":"121.497822"},{"nanyangSiteId":"tt-mb-0266","siteNameZh":"寶華寺","siteNameAlt1":"Bao Hua Si","latitude":"25.039357","longitude":"121.497822"},{"nanyangSiteId":"tt-mb-0267","siteNameZh":"福州山念佛寺","siteNameAlt1":"Fu Zhou Shan Nian Fo Si","latitude":"25.011898","longitude":"121.553079"},{"nanyangSiteId":"tt-mb-0268","siteNameZh":"靈鷲山台北講堂﹝草創期﹞","siteNameAlt1":"Ling Jiou Mountain Taipei Dharma Hall","latitude":"25.033431","longitude":"121.553193"},{"nanyangSiteId":"tt-mb-0269","siteNameZh":"靈鷲山台北講堂","siteNameAlt1":"Ling Jiou Mountain Taipei Dharma Hall","latitude":"25.033431","longitude":"121.553193"},{"nanyangSiteId":"tt-mb-0270","siteNameZh":"佛天宮","siteNameAlt1":"Fo Tian Gong","latitude":"25.022152","longitude":"121.552131"},{"nanyangSiteId":"tt-mb-0271","siteNameZh":"中華佛教居士會","siteNameAlt1":"Chinese Buddhism Dharma Upholders Society","latitude":"25.017974","longitude":"121.531306"},{"nanyangSiteId":"tt-mb-0272","siteNameZh":"一心寺","siteNameAlt1":"Yi Xin Si","latitude":"25.032802","longitude":"121.538348"},{"nanyangSiteId":"tt-mb-0273","siteNameZh":"慈恩佛會","siteNameAlt1":"Ci En Fo Hui","latitude":"25.024993","longitude":"121.530254"},{"nanyangSiteId":"tt-mb-0274","siteNameZh":"玄成堂","siteNameAlt1":"Xuan Cheng Tang","latitude":"25.013208","longitude":"121.545375"},{"nanyangSiteId":"tt-mb-0275","siteNameZh":"慈善佛寺","siteNameAlt1":"Ci Shan Fo Si","latitude":"25.029315","longitude":"121.553693"},{"nanyangSiteId":"tt-mb-0276","siteNameZh":"玉鳳宮","siteNameAlt1":"Yu Feng Gong","latitude":"25.019618","longitude":"121.556788"},{"nanyangSiteId":"tt-mb-0277","siteNameZh":"清水宮","siteNameAlt1":"Qing Shui Gong","latitude":"25.029937","longitude":"121.543823"},{"nanyangSiteId":"tt-mb-0278","siteNameZh":"佛教力行學院台北學部","siteNameAlt1":"Fo Jiao Li Xing Xue Yuan Taipei Xue Bu","latitude":"25.036657","longitude":"121.557373"},{"nanyangSiteId":"tt-mb-0279","siteNameZh":"白雲禪寺","siteNameAlt1":"Bai Yun Chan Si","latitude":"25.031953","longitude":"121.552047"},{"nanyangSiteId":"tt-mb-0280","siteNameZh":"和南別苑","siteNameAlt1":"He Nan Bie Yuan","latitude":"25.022869","longitude":"121.53648"},{"nanyangSiteId":"tt-mb-0281","siteNameZh":"中華五眼護盲協會","siteNameAlt1":"Zhong Hua Wu Yan Hu Mang Xie Hui","latitude":"25.030177","longitude":"121.543913"},{"nanyangSiteId":"tt-mb-0282","siteNameZh":"珠龍宮","siteNameAlt1":"Zhu Long Gong","latitude":"25.019108","longitude":"121.557406"},{"nanyangSiteId":"tt-mb-0283","siteNameZh":"清山寺","siteNameAlt1":"Qing Shan Si","latitude":"25.029013","longitude":"121.543702"},{"nanyangSiteId":"tt-mb-0284","siteNameZh":"法藏精舍","siteNameAlt1":"Fa Cang Jing She","latitude":"25.043208","longitude":"121.54308"},{"nanyangSiteId":"tt-mb-0285","siteNameZh":"妙音佛堂","siteNameAlt1":"Miao Yin Fo Tang","latitude":"25.035702","longitude":"121.555898"},{"nanyangSiteId":"tt-mb-0286","siteNameZh":"台北妙廣文教基金會","siteNameAlt1":"Taipei Miao Guang Wen Jiao Ji Jin Hui","latitude":"25.034156","longitude":"121.556844"},{"nanyangSiteId":"tt-mb-0287","siteNameZh":"正法源學佛會","siteNameAlt1":"Zheng Fa Yuan Xue Fo Hui","latitude":"25.036778","longitude":"121.535975"},{"nanyangSiteId":"tt-mb-0288","siteNameZh":"中華慧炬佛學會","siteNameAlt1":"Zhong Hua Hui Ju Buddhist Institute","latitude":"25.036364","longitude":"121.536807"},{"nanyangSiteId":"tt-mb-0289","siteNameZh":"禪門佛教文化中心","siteNameAlt1":"Chan Men Fo Jiao Wen Hua Zhong Xin","latitude":"25.041262","longitude":"121.547216"},{"nanyangSiteId":"tt-mb-0290","siteNameZh":"唯真講堂","siteNameAlt1":"Wei Zhen Jiang Tang","latitude":"25.017989","longitude":"121.551293"},{"nanyangSiteId":"tt-mb-0291","siteNameZh":"華藏淨宗學會","siteNameAlt1":"Hwadzan Pureland Learning Center","latitude":"25.033424","longitude":"121.556216"},{"nanyangSiteId":"tt-mb-0292","siteNameZh":"聖脈生命協會","siteNameAlt1":"Sheng Mai Sheng Ming Xie Hui","latitude":"25.031519","longitude":"121.530907"},{"nanyangSiteId":"tt-mb-0293","siteNameZh":"中華民國菩提願學佛會","siteNameAlt1":"Pu ti yuan Buddhist Association (R.O.C.)","latitude":"25.039739","longitude":"121.551439"},{"nanyangSiteId":"tt-mb-0294","siteNameZh":"慈濟台北分會靜思堂","siteNameAlt1":"Ci Ji Taipei Fen Hui Jing Si Tang","latitude":"25.043668","longitude":"121.538451"},{"nanyangSiteId":"tt-mb-0295","siteNameZh":"台北市岡波巴金剛乘佛學會","siteNameAlt1":"Taipei Gang Po Ba Jin Gang Sheng Buddhist Institute","latitude":"25.034033","longitude":"121.546069"},{"nanyangSiteId":"tt-mb-0296","siteNameZh":"彌勒大佛工程台灣辦事處","siteNameAlt1":"Mi Le Da Fo Gong Cheng Taiwan Ban Shi Chu","latitude":"25.02922","longitude":"121.549339"},{"nanyangSiteId":"tt-mb-0297","siteNameZh":"中華民國無量壽佛學會","siteNameAlt1":"Amitayu Buddhism Center (R.O.C.)","latitude":"25.042323","longitude":"121.54668"},{"nanyangSiteId":"tt-mb-0298","siteNameZh":"寧瑪巴九乘法輪中心","siteNameAlt1":"Nyingma Jiu cheng Fa lun Buddhist Center","latitude":"25.036497","longitude":"121.548059"},{"nanyangSiteId":"tt-mb-0299","siteNameZh":"創古智慧金剛佛學中心","siteNameAlt1":"Chuang Gu Zhi Hui Jin Gang Buddhist Center","latitude":"25.041574","longitude":"121.555834"},{"nanyangSiteId":"tt-mb-0300","siteNameZh":"寧瑪巴白玉祥丘達吉林佛學會台北中心","siteNameAlt1":"Nyingmapa Palyul Jangchub Darjeling Taipei Center","latitude":"25.04189","longitude":"121.539202"},{"nanyangSiteId":"tt-mb-0301","siteNameZh":"寧瑪派明心精舍","siteNameAlt1":"Nyingma Dharmata Meditation Center","latitude":"25.041695","longitude":"121.550378"},{"nanyangSiteId":"tt-mb-0302","siteNameZh":"白玉福德增廣佛學會","siteNameAlt1":"Palyul Fu De Zeng Guang Buddhist Institute","latitude":"25.039969","longitude":"121.553325"},{"nanyangSiteId":"tt-mb-0303","siteNameZh":"佛教顯密智慧協會","siteNameAlt1":"Fo Jiao Xian Mi Zhi Hui Xie Hui","latitude":"25.041393","longitude":"121.54494"},{"nanyangSiteId":"tt-mb-0304","siteNameZh":"阿彌陀佛協會","siteNameAlt1":"A Mi Tuo Fo Xie Hui","latitude":"25.041996","longitude":"121.546601"},{"nanyangSiteId":"tt-mb-0305","siteNameZh":"台北市噶舉佛學會","siteNameAlt1":"Taipei Kagyu Buddhist Institute","latitude":"25.034334","longitude":"121.554935"},{"nanyangSiteId":"tt-mb-0306","siteNameZh":"中華佛教直貢噶舉菩曼日光林學會","siteNameAlt1":"Zhong Hua Fo Jiao Zhi Gong Kagyu Pu Man Ri Guang Lin Xue Hui","latitude":"25.033777","longitude":"121.554834"},{"nanyangSiteId":"tt-mb-0307","siteNameZh":"台灣哲蚌寺洛色林佛學會","siteNameAlt1":"Taiwan Zhe Bang Si Luo Se Lin Buddhist Institute","latitude":"25.023199","longitude":"121.528481"},{"nanyangSiteId":"tt-mb-0308","siteNameZh":"吉祥法輪學會","siteNameAlt1":"Ji Xiang Fa Lun Xue Hui","latitude":"25.029389","longitude":"121.553202"},{"nanyangSiteId":"tt-mb-0309","siteNameZh":"巴麥寺佛學會","siteNameAlt1":"Ba Mai Si Buddhist Institute","latitude":"25.028359","longitude":"121.552857"},{"nanyangSiteId":"tt-mb-0310","siteNameZh":"台北市薩迦詑巴福樂圓滿善住學佛會","siteNameAlt1":"Taipei Sa Jia Tuo Ba Fu Le Yuan Man Shan Zhu Xue Fo Hui","latitude":"25.031738","longitude":"121.553948"},{"nanyangSiteId":"tt-mb-0311","siteNameZh":"淨廬念佛會~樂淨齋","siteNameAlt1":"Jing Lu Chanting Society ~ Le Jing Zhai","latitude":"25.034003","longitude":"121.524405"},{"nanyangSiteId":"tt-mb-0312","siteNameZh":"薩迦學院","siteNameAlt1":"Sakya College","latitude":"25.028831","longitude":"121.544168"},{"nanyangSiteId":"tt-mb-0313","siteNameZh":"中華民國蓮師事業金剛護法會","siteNameAlt1":"Taiwan Ogyen Mahaguru Society (R.O.C.)","latitude":"25.034636","longitude":"121.536645"},{"nanyangSiteId":"tt-mb-0314","siteNameZh":"台灣寧瑪洛札卡秋達瑪謌諦學佛會","siteNameAlt1":"Taiwan Nyingma Luo Zha Ka Qiu Da Ma Ge Di Xue Fo Hui","latitude":"25.020008","longitude":"121.553257"},{"nanyangSiteId":"tt-mb-0315","siteNameZh":"地藏學會","siteNameAlt1":"Di Cang Xue Hui","latitude":"25.033171","longitude":"121.542898"},{"nanyangSiteId":"tt-mb-0316","siteNameZh":"慧安精舍","siteNameAlt1":"Hui An Jing She","latitude":"25.033887","longitude":"121.545832"},{"nanyangSiteId":"tt-mb-0317","siteNameZh":"佛化人生新時代書院","siteNameAlt1":"Buddhist Life New Age College","latitude":"25.017158","longitude":"121.532162"},{"nanyangSiteId":"tt-mb-0318","siteNameZh":"弘願蓮社","siteNameAlt1":"Hong Yuan Lian She","latitude":"25.031078","longitude":"121.5468"},{"nanyangSiteId":"tt-mb-0319","siteNameZh":"慈明禪寺","siteNameAlt1":"Ci Ming Chan Si","latitude":"25.017911","longitude":"121.550507"},{"nanyangSiteId":"tt-mb-0320","siteNameZh":"佛海禪寺","siteNameAlt1":"Fo Hai Chan Si","latitude":"25.024447","longitude":"121.547385"},{"nanyangSiteId":"tt-mb-0321","siteNameZh":"彌陀精舍","siteNameAlt1":"Mi Tuo Jing She","latitude":"25.041061","longitude":"121.536917"},{"nanyangSiteId":"tt-mb-0322","siteNameZh":"中國佛教文化教育活動中心","siteNameAlt1":"Zhong Guo Fo Jiao Wen Hua Jiao Yu Huo Dong Zhong Xin","latitude":"25.04375","longitude":"121.544038"},{"nanyangSiteId":"tt-mb-0323","siteNameZh":"大乘講堂","siteNameAlt1":"Da Sheng Jiang Tang","latitude":"25.043184","longitude":"121.54403"},{"nanyangSiteId":"tt-mb-0324","siteNameZh":"菩提園","siteNameAlt1":"Pu Ti Yuan","latitude":"25.04258","longitude":"121.543574"},{"nanyangSiteId":"tt-mb-0325","siteNameZh":"達摩禪苑","siteNameAlt1":"Da Mo Chan Yuan","latitude":"25.016943","longitude":"121.532998"},{"nanyangSiteId":"tt-mb-0326","siteNameZh":"靜修庵","siteNameAlt1":"Jing Xiu An","latitude":"25.031189","longitude":"121.544483"},{"nanyangSiteId":"tt-mb-0327","siteNameZh":"妙華蓮苑","siteNameAlt1":"Miao Hua Lian Yuan","latitude":"25.017668","longitude":"121.53181"},{"nanyangSiteId":"tt-mb-0328","siteNameZh":"慧明講堂","siteNameAlt1":"Hui Ming Jiang Tang","latitude":"25.023057","longitude":"121.525941"},{"nanyangSiteId":"tt-mb-0329","siteNameZh":"藥師如來止法發揚會","siteNameAlt1":"Yao Shi Ru Lai Zhi Fa Fa Yang Hui","latitude":"25.041257","longitude":"121.548047"},{"nanyangSiteId":"tt-mb-0330","siteNameZh":"佛心功德會台北市社區暨志願服務推廣中心分會","siteNameAlt1":"Buddha Heart World Headquarters Taipei Community Branch","latitude":"25.035367","longitude":"121.555233"},{"nanyangSiteId":"tt-mb-0331","siteNameZh":"桑耶精舍","siteNameAlt1":"Sang Ye Jing She","latitude":"25.043139","longitude":"121.544028"},{"nanyangSiteId":"tt-mb-0332","siteNameZh":"創價學會幸安講堂","siteNameAlt1":"Chuang Jia Xue Hui Xing An Jiang Tang","latitude":"25.04188","longitude":"121.539087"},{"nanyangSiteId":"tt-mb-0333","siteNameZh":"地藏王廟","siteNameAlt1":"Di Cang Wang Miao","latitude":"25.011859","longitude":"121.547677"},{"nanyangSiteId":"tt-mb-0334","siteNameZh":"安和悟覺精舍","siteNameAlt1":"An He Wu Jue Jing She","latitude":"25.035095","longitude":"121.548285"},{"nanyangSiteId":"tt-mb-0335","siteNameZh":"淨嵐學舍","siteNameAlt1":"Jing Lan Xue She","latitude":"25.033485","longitude":"121.548417"},{"nanyangSiteId":"tt-mb-0336","siteNameZh":"法鼓山大安共修處","siteNameAlt1":"Dharma Drum Mountain Da An Practice Center","latitude":"25.040746","longitude":"121.534294"},{"nanyangSiteId":"tt-mb-0337","siteNameZh":"法鼓山大安聯絡處","siteNameAlt1":"Dharma Drum Mountain Da An Liaison Office","latitude":"25.019426","longitude":"121.553606"},{"nanyangSiteId":"tt-mb-0338","siteNameZh":"華藏淨宗弘化基金會","siteNameAlt1":"Hua Cang Jing Zong Hong Hua Ji Jin Hui","latitude":"25.03329","longitude":"121.556731"},{"nanyangSiteId":"tt-mb-0339","siteNameZh":"法華寺﹝草創期 ﹞","siteNameAlt1":"Fa Hua Si","latitude":"25.038623","longitude":"121.505849"},{"nanyangSiteId":"tt-mb-0340","siteNameZh":"日蓮宗法華寺","siteNameAlt1":"Ri Lian Zong Fa Hua Si","latitude":"25.038623","longitude":"121.505849"},{"nanyangSiteId":"tt-mb-0341","siteNameZh":"法華寺","siteNameAlt1":"Fa Hua Si","latitude":"25.038623","longitude":"121.505849"},{"nanyangSiteId":"tt-mb-0342","siteNameZh":"艋舺龍山寺","siteNameAlt1":"Meng Jia Long Shan Si","latitude":"25.036961","longitude":"121.499691"},{"nanyangSiteId":"tt-mb-0343","siteNameZh":"中台山普眼精舍﹝草創期 ﹞","siteNameAlt1":"Chung Tai Shan Pu Yan Meditation Center","latitude":"25.046676","longitude":"121.509824"},{"nanyangSiteId":"tt-mb-0344","siteNameZh":"中台山普眼精舍","siteNameAlt1":"Chung Tai Shan Pu Yan Meditation Center","latitude":"25.045729","longitude":"121.508789"},{"nanyangSiteId":"tt-mb-0345","siteNameZh":"艋舺地藏庵","siteNameAlt1":"Meng Jia Di Cang An","latitude":"25.036868","longitude":"121.500586"},{"nanyangSiteId":"tt-mb-0346","siteNameZh":"功明精舍","siteNameAlt1":"Gong Ming Jing She","latitude":"25.037049","longitude":"121.500809"},{"nanyangSiteId":"tt-mb-0347","siteNameZh":"信心禪寺","siteNameAlt1":"Xin Xin Chan Si","latitude":"25.040895","longitude":"121.49959"},{"nanyangSiteId":"tt-mb-0348","siteNameZh":"慈雲佛堂﹝草創期﹞","siteNameAlt1":"Ci Yun Fo Tang","latitude":"25.046424","longitude":"121.503955"},{"nanyangSiteId":"tt-mb-0349","siteNameZh":"慈雲佛堂﹝草創期 ﹞","siteNameAlt1":"Ci Yun Fo Tang","latitude":"25.046424","longitude":"121.503955"},{"nanyangSiteId":"tt-mb-0350","siteNameZh":"慈雲寺","siteNameAlt1":"Ci Yun Si","latitude":"25.046424","longitude":"121.503955"},{"nanyangSiteId":"tt-mb-0351","siteNameZh":"東本願寺","siteNameAlt1":"Dong Ben Yuan Si","latitude":"25.04526","longitude":"121.506273"},{"nanyangSiteId":"tt-mb-0352","siteNameZh":"妙覺精舍","siteNameAlt1":"Miao Jue Jing She","latitude":"25.030569","longitude":"121.495243"},{"nanyangSiteId":"tt-mb-0353","siteNameZh":"艋舺清水巖祖師廟","siteNameAlt1":"Meng Jia Qing Shui Yan Zu Shi Miao","latitude":"25.040261","longitude":"121.502099"},{"nanyangSiteId":"tt-mb-0354","siteNameZh":"西本願寺","siteNameAlt1":"Xi Ben Yuan Si","latitude":"25.039847","longitude":"121.506689"},{"nanyangSiteId":"tt-mb-0355","siteNameZh":"高野山台灣別院弘法寺","siteNameAlt1":"Gao Ye Shan Taiwan Bie Yuan Hong Fa Si","latitude":"25.042638","longitude":"121.506471"},{"nanyangSiteId":"tt-mb-0356","siteNameZh":"新約龍華佛教聖國山保安堂","siteNameAlt1":"Xin Yue Long Hua Fo Jiao Sheng Guo Shan Bao An Tang","latitude":"25.038904","longitude":"121.501443"},{"nanyangSiteId":"tt-mb-0357","siteNameZh":"慈恩禪寺","siteNameAlt1":"Ci En Chan Si","latitude":"25.034214","longitude":"121.496359"},{"nanyangSiteId":"tt-mb-0358","siteNameZh":"妙音大道場","siteNameAlt1":"Miao Yin Da Dao Chang","latitude":"25.038904","longitude":"121.501943"},{"nanyangSiteId":"tt-mb-0359","siteNameZh":"萬能宮","siteNameAlt1":"Wan Neng Gong","latitude":"25.031683","longitude":"121.496079"},{"nanyangSiteId":"tt-mb-0360","siteNameZh":"台北佛教同修會","siteNameAlt1":"Taipei Fo Jiao Tong Xiu Hui","latitude":"25.038023","longitude":"121.49945"},{"nanyangSiteId":"tt-mb-0361","siteNameZh":"慈航念佛共修會","siteNameAlt1":"Ci Hang Nian Fo Gong Xiu Hui","latitude":"25.024511","longitude":"121.492414"},{"nanyangSiteId":"tt-mb-0362","siteNameZh":"普潤佛堂","siteNameAlt1":"Pu Run Fo Tang","latitude":"25.047598","longitude":"121.509077"},{"nanyangSiteId":"tt-mb-0363","siteNameZh":"佛光堂","siteNameAlt1":"Fo Guang Tang","latitude":"25.020011","longitude":"121.494175"},{"nanyangSiteId":"tt-mb-0364","siteNameZh":"改化堂","siteNameAlt1":"Gai Hua Tang","latitude":"25.018797","longitude":"121.495455"},{"nanyangSiteId":"tt-mb-0365","siteNameZh":"台北市廣照宮","siteNameAlt1":"Taipei Guang Zhao Gong","latitude":"25.023491","longitude":"121.500389"},{"nanyangSiteId":"tt-mb-0366","siteNameZh":"真學精舍","siteNameAlt1":"Zhen Xue Jing She","latitude":"25.038836","longitude":"121.505279"},{"nanyangSiteId":"tt-mb-0367","siteNameZh":"蓮池寺","siteNameAlt1":"Lian Chi Si","latitude":"25.036784","longitude":"121.49252"},{"nanyangSiteId":"tt-mb-0368","siteNameZh":"助順將軍廟","siteNameAlt1":"Zhu Shun Jiang Jun Miao","latitude":"25.045891","longitude":"121.503336"},{"nanyangSiteId":"tt-mb-0369","siteNameZh":"法鼓山中正萬華辦事處","siteNameAlt1":"Dharma Drum Mountain Zhong Zheng Wanhua Office","latitude":"25.026284","longitude":"121.500605"},{"nanyangSiteId":"tt-mb-0370","siteNameZh":"達摩寺","siteNameAlt1":"Da Mo Si","latitude":"25.021839","longitude":"121.499777"},{"nanyangSiteId":"tt-mb-0371","siteNameZh":"慈濟中正萬華聯絡處","siteNameAlt1":"Ci Ji Zhong Zheng Wan Hua Lian Luo Chu","latitude":"25.03158","longitude":"121.50035"},{"nanyangSiteId":"tt-mb-0372","siteNameZh":"至玄宮","siteNameAlt1":"Zhi Xuan Gong","latitude":"25.024752","longitude":"121.501789"},{"nanyangSiteId":"tt-mb-0373","siteNameZh":"白雲般若講堂","siteNameAlt1":"Bai Yun Po Ruo Jiang Tang","latitude":"25.046146","longitude":"121.50517"},{"nanyangSiteId":"tt-mb-0374","siteNameZh":"無極靈隱寺","siteNameAlt1":"Wu Ji Ling Yin Si","latitude":"25.023634","longitude":"121.494804"},{"nanyangSiteId":"tt-mb-0375","siteNameZh":"巖清寺","siteNameAlt1":"Yan Qing Si","latitude":"25.021529","longitude":"121.492325"},{"nanyangSiteId":"tt-mb-0376","siteNameZh":"蓮宗精舍","siteNameAlt1":"Lian Zong Jing She","latitude":"25.030769","longitude":"121.495306"},{"nanyangSiteId":"tt-mb-0377","siteNameZh":"壽光學舍","siteNameAlt1":"Shou Guang Xue She","latitude":"25.02954","longitude":"121.504329"},{"nanyangSiteId":"tt-mb-0378","siteNameZh":"九龍菩提行願會","siteNameAlt1":"Jiu Long Pu Ti Xing Yuan Hui","latitude":"25.04049","longitude":"121.505438"},{"nanyangSiteId":"tt-mb-0379","siteNameZh":"舊譯講修林佛學研究協會","siteNameAlt1":"Jiu Yi Jiang Xiu Lin Fo Xue Yan Jiu Xie Hui","latitude":"25.024786","longitude":"121.500529"},{"nanyangSiteId":"tt-mb-0380","siteNameZh":"寧瑪巴白玉祥丘達吉林佛學會","siteNameAlt1":"Taipei Nyingmapa Palyul Jangchub Darjeling Buddhist Institute","latitude":"25.032352","longitude":"121.491813"},{"nanyangSiteId":"tt-mb-0381","siteNameZh":"法輪講堂","siteNameAlt1":"Fa Lun Jiang Tang","latitude":"25.045581","longitude":"121.508798"},{"nanyangSiteId":"tt-mb-0382","siteNameZh":"慧光精舍","siteNameAlt1":"Hui Guang Jing She","latitude":"25.045787","longitude":"121.508587"},{"nanyangSiteId":"tt-mb-0383","siteNameZh":"慈願行苑","siteNameAlt1":"Ci Yuan Xing Yuan","latitude":"25.038966","longitude":"121.500749"},{"nanyangSiteId":"tt-mb-0384","siteNameZh":"三慧學舍","siteNameAlt1":"San Hui Xue She","latitude":"25.037958","longitude":"121.500419"},{"nanyangSiteId":"tt-mb-0385","siteNameZh":"台北縣佛教會","siteNameAlt1":"Taipei County Buddhist Association","latitude":"25.048183","longitude":"121.507609"},{"nanyangSiteId":"tt-mb-0386","siteNameZh":"觀自在慈友會","siteNameAlt1":"Guan Zi Zai Ci You Hui","latitude":"25.037225","longitude":"121.504294"},{"nanyangSiteId":"tt-mb-0387","siteNameZh":"慈善佛堂","siteNameAlt1":"Ci Shan Fo Tang","latitude":"25.040717","longitude":"121.50567"},{"nanyangSiteId":"tt-mb-0388","siteNameZh":"蓮德學佛會","siteNameAlt1":"Lian De Xue Fo Hui","latitude":"25.032574","longitude":"121.489411"},{"nanyangSiteId":"tt-mb-0389","siteNameZh":"創價學會中興文化會館","siteNameAlt1":"Chuang Jia Xue Hui Zhong Xing Wen Hua Hui Guan","latitude":"25.043634","longitude":"121.501681"},{"nanyangSiteId":"tt-mb-0390","siteNameZh":"生命電視萬華中心","siteNameAlt1":"Sheng Ming Dian Shi Wan Hua Zhong Xin","latitude":"25.01943","longitude":"121.495852"},{"nanyangSiteId":"tt-mb-0391","siteNameZh":"真光禪寺","siteNameAlt1":"Zhen Guang Chan Si","latitude":"25.031775","longitude":"121.587029"},{"nanyangSiteId":"tt-mb-0392","siteNameZh":"中台山普光精舍","siteNameAlt1":"Chung Tai Shan Pu Guang Meditation Center (Taipei)","latitude":"25.028966","longitude":"121.564898"},{"nanyangSiteId":"tt-mb-0393","siteNameZh":"中台山普皇精舍","siteNameAlt1":"Chung Tai Shan Pu Huang Meditation Center","latitude":"25.026588","longitude":"121.555062"},{"nanyangSiteId":"tt-mb-0394","siteNameZh":"松山寺﹝草創期 ﹞","siteNameAlt1":"Sung Shan Temple","latitude":"25.023954","longitude":"121.564064"},{"nanyangSiteId":"tt-mb-0395","siteNameZh":"佛光山松山寺","siteNameAlt1":"Fo Guang Shan Sung Shan Temple","latitude":"25.023954","longitude":"121.564064"},{"nanyangSiteId":"tt-mb-0396","siteNameZh":"松山靈隱寺","siteNameAlt1":"Song Shan Ling Yin Si","latitude":"25.025148","longitude":"121.581381"},{"nanyangSiteId":"tt-mb-0397","siteNameZh":"湖春寺","siteNameAlt1":"Hu Chun Si","latitude":"25.095271","longitude":"121.526444"},{"nanyangSiteId":"tt-mb-0398","siteNameZh":"靈源寺","siteNameAlt1":"Ling Yuan Si","latitude":"25.048887","longitude":"121.575295"},{"nanyangSiteId":"tt-mb-0399","siteNameZh":"千佛山十方大法禪寺","siteNameAlt1":"Qian Fo Shan Shi Fang Da Fa Chan Si","latitude":"25.031425","longitude":"121.589979"},{"nanyangSiteId":"tt-mb-0400","siteNameZh":"佛光山台北道場","siteNameAlt1":"Fo Guang Shan Taipei Vihara","latitude":"25.048309","longitude":"121.578821"},{"nanyangSiteId":"tt-mb-0401","siteNameZh":"石泉巖","siteNameAlt1":"Shi Quan Yan","latitude":"25.012057","longitude":"121.568817"},{"nanyangSiteId":"tt-mb-0402","siteNameZh":"永吉福德宮","siteNameAlt1":"Yong Ji Fu De Gong","latitude":"25.042145","longitude":"121.569956"},{"nanyangSiteId":"tt-mb-0403","siteNameZh":"觀音覺佛園","siteNameAlt1":"Guan Yin Jue Fo Yuan","latitude":"25.045491","longitude":"121.570828"},{"nanyangSiteId":"tt-mb-0404","siteNameZh":"龍壽佛堂","siteNameAlt1":"Long Shou Fo Tang","latitude":"25.044531","longitude":"121.574106"},{"nanyangSiteId":"tt-mb-0405","siteNameZh":"華嚴聖因精舍","siteNameAlt1":"Hua Yan Sheng Yin Jing She","latitude":"25.029867","longitude":"121.561134"},{"nanyangSiteId":"tt-mb-0406","siteNameZh":"慈皇靈山照源臺","siteNameAlt1":"Ci Huang Ling Shan Zhao Yuan Tai","latitude":"25.023194","longitude":"121.561943"},{"nanyangSiteId":"tt-mb-0407","siteNameZh":"玄覺寺","siteNameAlt1":"Xuan Jue Si","latitude":"25.022631","longitude":"121.561103"},{"nanyangSiteId":"tt-mb-0408","siteNameZh":"東王寶殿","siteNameAlt1":"Dong Wang Bao Dian","latitude":"25.016348","longitude":"121.573581"},{"nanyangSiteId":"tt-mb-0409","siteNameZh":"觀音寺","siteNameAlt1":"Guan Yin Si","latitude":"25.018479","longitude":"121.571966"},{"nanyangSiteId":"tt-mb-0410","siteNameZh":"淨蓮念佛會","siteNameAlt1":"Jing Lian Chanting Society","latitude":"25.016664","longitude":"121.573063"},{"nanyangSiteId":"tt-mb-0411","siteNameZh":"玉天宮","siteNameAlt1":"Yu Tian Gong","latitude":"25.021295","longitude":"121.557346"},{"nanyangSiteId":"tt-mb-0412","siteNameZh":"妙行講堂","siteNameAlt1":"Miao Xing Jiang Tang","latitude":"25.040624","longitude":"121.578072"},{"nanyangSiteId":"tt-mb-0413","siteNameZh":"松山青雲寺","siteNameAlt1":"Song Shan Qing Yun Si","latitude":"25.031814","longitude":"121.579279"},{"nanyangSiteId":"tt-mb-0414","siteNameZh":"修聖寺","siteNameAlt1":"Xiu Sheng Si","latitude":"25.026205","longitude":"121.578977"},{"nanyangSiteId":"tt-mb-0415","siteNameZh":"紫竹精舍","siteNameAlt1":"Zi Zhu Jing She","latitude":"25.026785","longitude":"121.581532"},{"nanyangSiteId":"tt-mb-0416","siteNameZh":"修德庵","siteNameAlt1":"Xiu De An","latitude":"25.027605","longitude":"121.581205"},{"nanyangSiteId":"tt-mb-0417","siteNameZh":"西方三聖寺","siteNameAlt1":"Xi Fang San Sheng Si","latitude":"25.026122","longitude":"121.582355"},{"nanyangSiteId":"tt-mb-0418","siteNameZh":"地藏庵","siteNameAlt1":"Di Cang An","latitude":"25.026122","longitude":"121.582615"},{"nanyangSiteId":"tt-mb-0419","siteNameZh":"福樂寺","siteNameAlt1":"Fu Le Si","latitude":"25.026122","longitude":"121.582355"},{"nanyangSiteId":"tt-mb-0420","siteNameZh":"普陀山金剛禪寺","siteNameAlt1":"Pu Tuo Shan Jin Gang Chan Si","latitude":"25.026172","longitude":"121.582355"},{"nanyangSiteId":"tt-mb-0421","siteNameZh":"寒山寺","siteNameAlt1":"Han Shan Si","latitude":"25.026585","longitude":"121.581532"},{"nanyangSiteId":"tt-mb-0422","siteNameZh":"普陀山慈航寺","siteNameAlt1":"Pu Tuo Shan Ci Hang Si","latitude":"25.025817","longitude":"121.578033"},{"nanyangSiteId":"tt-mb-0423","siteNameZh":"賢徧林佛學會","siteNameAlt1":"Xian Bian Lin Buddhist Institute","latitude":"25.047846","longitude":"121.577194"},{"nanyangSiteId":"tt-mb-0424","siteNameZh":"無極聖寶殿","siteNameAlt1":"Wu Ji Sheng Bao Dian","latitude":"25.040312","longitude":"121.574166"},{"nanyangSiteId":"tt-mb-0425","siteNameZh":"拇指山大悲佛堂","siteNameAlt1":"Mu Zhi Shan Da Bei Fo Tang","latitude":"25.020896","longitude":"121.579902"},{"nanyangSiteId":"tt-mb-0426","siteNameZh":"忠義宮","siteNameAlt1":"Zhong Yi Gong","latitude":"25.048505","longitude":"121.569524"},{"nanyangSiteId":"tt-mb-0427","siteNameZh":"天月宮","siteNameAlt1":"Tian Yue Gong","latitude":"25.032273","longitude":"121.559296"},{"nanyangSiteId":"tt-mb-0428","siteNameZh":"中華密嚴宗佛教協會千手觀音寺","siteNameAlt1":"Zhong Hua Mi Yan Zong Fo Jiao Xie Hui Qian Shou Guan Yin Si","latitude":"25.030951","longitude":"121.559297"},{"nanyangSiteId":"tt-mb-0429","siteNameZh":"寧瑪巴噶陀顯密繁榮洲佛學會","siteNameAlt1":"Nyingma Kathok Xian mi Fan rong zhou Buddhist Institute","latitude":"25.029251","longitude":"121.557453"},{"nanyangSiteId":"tt-mb-0430","siteNameZh":"六張犁慈聖宮","siteNameAlt1":"Liu Zhang Li Ci Sheng Gong","latitude":"25.023006","longitude":"121.557349"},{"nanyangSiteId":"tt-mb-0431","siteNameZh":"順天宮","siteNameAlt1":"Shun Tian Gong","latitude":"25.023669","longitude":"121.556845"},{"nanyangSiteId":"tt-mb-0432","siteNameZh":"嚴寬祜文教基金會","siteNameAlt1":"Yan Kuan Hu Wen Jiao Ji Jin Hui","latitude":"25.040574","longitude":"121.562441"},{"nanyangSiteId":"tt-mb-0433","siteNameZh":"佛教菩提願學佛會","siteNameAlt1":"Fo Jiao Pu Ti Yuan Xue Fo Hui","latitude":"25.040163","longitude":"121.562149"},{"nanyangSiteId":"tt-mb-0434","siteNameZh":"松山慧德寺","siteNameAlt1":"Song Shan Hui De Si","latitude":"25.036153","longitude":"121.583537"},{"nanyangSiteId":"tt-mb-0435","siteNameZh":"壽天宮","siteNameAlt1":"Shou Tian Gong","latitude":"25.031892","longitude":"121.586797"},{"nanyangSiteId":"tt-mb-0436","siteNameZh":"明山寺","siteNameAlt1":"Ming Shan Si","latitude":"25.030144","longitude":"121.586348"},{"nanyangSiteId":"tt-mb-0437","siteNameZh":"松山九五茅蓬","siteNameAlt1":"Song Shan Jiu Wu Mao Peng","latitude":"25.028975","longitude":"121.58446"},{"nanyangSiteId":"tt-mb-0438","siteNameZh":"本願禪寺","siteNameAlt1":"Ben Yuan Chan Si","latitude":"25.032219","longitude":"121.588535"},{"nanyangSiteId":"tt-mb-0439","siteNameZh":"光復南路白玉中心","siteNameAlt1":"Guang Fu S. Rd Palyul Center","latitude":"25.03538","longitude":"121.557782"},{"nanyangSiteId":"tt-mb-0440","siteNameZh":"中華菩提協會","siteNameAlt1":"Zhong Hua Pu Ti Xie Hui","latitude":"25.041097","longitude":"121.578885"},{"nanyangSiteId":"tt-mb-0441","siteNameZh":"上密院台北佛學中心","siteNameAlt1":"Shang Mi Yuan Taipei Buddhist Center","latitude":"25.034116","longitude":"121.575968"},{"nanyangSiteId":"tt-mb-0442","siteNameZh":"達賴喇嘛西藏宗教基金會","siteNameAlt1":"Tibet Religious Foundation of His Holiness the Dalai Lama","latitude":"25.024831","longitude":"121.553303"},{"nanyangSiteId":"tt-mb-0443","siteNameZh":"向覺學會","siteNameAlt1":"Xiang Jue Xue Hui","latitude":"25.040996","longitude":"121.585735"},{"nanyangSiteId":"tt-mb-0444","siteNameZh":"卓千佛學會","siteNameAlt1":"Zhuo Qian Buddhist Institute","latitude":"25.024825","longitude":"121.570542"},{"nanyangSiteId":"tt-mb-0445","siteNameZh":"大佛精舍","siteNameAlt1":"Da Fo Jing She","latitude":"25.037698","longitude":"121.577139"},{"nanyangSiteId":"tt-mb-0446","siteNameZh":"松山菩提蓮社","siteNameAlt1":"Song Shan Pu Ti Lian She","latitude":"25.043388","longitude":"121.57665"},{"nanyangSiteId":"tt-mb-0447","siteNameZh":"欣德園佛學圖書館","siteNameAlt1":"Xin De Yuan Buddhism library","latitude":"25.025998","longitude":"121.554658"},{"nanyangSiteId":"tt-mb-0448","siteNameZh":"中華民國中台禪學會","siteNameAlt1":"Zhong Hua Min Guo Zhong Tai Chan Xue Hui","latitude":"25.023998","longitude":"121.568924"},{"nanyangSiteId":"tt-mb-0449","siteNameZh":"淨土宗台北念佛會","siteNameAlt1":"Jing Tu Zong Taipei Chanting Society","latitude":"25.027409","longitude":"121.570671"},{"nanyangSiteId":"tt-mb-0450","siteNameZh":"淨土宗法物流通處","siteNameAlt1":"Jing Tu Zong Fa Wu Liu Tong Chu","latitude":"25.027212","longitude":"121.569562"},{"nanyangSiteId":"tt-mb-0451","siteNameZh":"創價學會松德講堂","siteNameAlt1":"Chuang Jia Xue Hui Song De Jiang Tang","latitude":"25.037858","longitude":"121.574625"},{"nanyangSiteId":"tt-mb-0452","siteNameZh":"圓覺精舍","siteNameAlt1":"Yuan Jue Jing She","latitude":"25.045787","longitude":"121.571929"},{"nanyangSiteId":"tt-mb-0453","siteNameZh":"法鼓山松山南港禪修會","siteNameAlt1":"Dharma Drum Mountain Sung Shan Nangang Meditation Group","latitude":"25.045218","longitude":"121.576497"},{"nanyangSiteId":"tt-mb-0454","siteNameZh":"法鼓山信義共修處","siteNameAlt1":"Dharma Drum Mountain Xinyi Practice Center","latitude":"25.045218","longitude":"121.576497"},{"nanyangSiteId":"tt-mb-0455","siteNameZh":"地藏寺","siteNameAlt1":"Di Cang Si","latitude":"25.122459","longitude":"121.558372"},{"nanyangSiteId":"tt-mb-0456","siteNameZh":"東方寺","siteNameAlt1":"Dong Fang Si","latitude":"25.122459","longitude":"121.558372"},{"nanyangSiteId":"tt-mb-0457","siteNameZh":"報恩堂","siteNameAlt1":"Bao En Tang","latitude":"25.085049","longitude":"121.526083"},{"nanyangSiteId":"tt-mb-0458","siteNameZh":"報恩寺","siteNameAlt1":"Bao En Si","latitude":"25.085049","longitude":"121.526083"},{"nanyangSiteId":"tt-mb-0459","siteNameZh":"臨濟宗士林佈教所","siteNameAlt1":"Lin Ji Zong Shi Lin Bu Jiao Suo","latitude":"25.083325","longitude":"121.526223"},{"nanyangSiteId":"tt-mb-0460","siteNameZh":"昭明寺","siteNameAlt1":"Zhao Ming Si","latitude":"25.083325","longitude":"121.526223"},{"nanyangSiteId":"tt-mb-0461","siteNameZh":"中台山普行精舍﹝草創期 ﹞","siteNameAlt1":"Chung Tai Shan Pu Xing Meditation Center","latitude":"25.118131","longitude":"121.532601"},{"nanyangSiteId":"tt-mb-0462","siteNameZh":"中台山普行精舍","siteNameAlt1":"Chung Tai Shan Pu Xing Meditation Center","latitude":"25.120409","longitude":"121.526384"},{"nanyangSiteId":"tt-mb-0463","siteNameZh":"吉祥寺","siteNameAlt1":"Ji Xiang Si","latitude":"25.123381","longitude":"121.541308"},{"nanyangSiteId":"tt-mb-0464","siteNameZh":"中台山普榮精舍","siteNameAlt1":"Chung Tai Shan Pu Rong Meditation Center","latitude":"25.109495","longitude":"121.533384"},{"nanyangSiteId":"tt-mb-0465","siteNameZh":"淨光寺﹝草創期﹞","siteNameAlt1":"Jing Guang Si","latitude":"25.110884","longitude":"121.528782"},{"nanyangSiteId":"tt-mb-0466","siteNameZh":"淨光寺","siteNameAlt1":"Jing Guang Si","latitude":"25.127782","longitude":"121.53715"},{"nanyangSiteId":"tt-mb-0467","siteNameZh":"淨光寺-講堂","siteNameAlt1":"Jing Guang Si Jiang Tang","latitude":"25.110884","longitude":"121.528782"},{"nanyangSiteId":"tt-mb-0468","siteNameZh":"南海普陀山慧濟寺分院﹝草創期﹞","siteNameAlt1":"Nan Hai Pu Tuo Shan Hui Ji Si Fen Yuan","latitude":"25.126796","longitude":"121.536378"},{"nanyangSiteId":"tt-mb-0469","siteNameZh":"南海普陀山慧濟寺","siteNameAlt1":"Nan Hai Pu Tuo Shan Hui Ji Si","latitude":"25.126796","longitude":"121.536378"},{"nanyangSiteId":"tt-mb-0470","siteNameZh":"妙法寺﹝草創期 ﹞","siteNameAlt1":"Miao Fa Si","latitude":"25.064283","longitude":"121.501412"},{"nanyangSiteId":"tt-mb-0471","siteNameZh":"妙法寺﹝草創期 ﹞","siteNameAlt1":"Miao Fa Si","latitude":"25.063243","longitude":"121.503049"},{"nanyangSiteId":"tt-mb-0472","siteNameZh":"妙法寺","siteNameAlt1":"Miao Fa Si","latitude":"25.12293","longitude":"121.586717"},{"nanyangSiteId":"tt-mb-0473","siteNameZh":"鼓山湧泉寺","siteNameAlt1":"Gu Shan Yong Quan Si","latitude":"25.098851","longitude":"121.555384"},{"nanyangSiteId":"tt-mb-0474","siteNameZh":"永明寺","siteNameAlt1":"Yong Ming Si","latitude":"25.107328","longitude":"121.547461"},{"nanyangSiteId":"tt-mb-0475","siteNameZh":"芝山巖﹝草創期﹞","siteNameAlt1":"Zhi Shan Yan","latitude":"25.102966","longitude":"121.530632"},{"nanyangSiteId":"tt-mb-0476","siteNameZh":"惠濟宮﹝草創期﹞","siteNameAlt1":"Hui Ji Gong","latitude":"25.102966","longitude":"121.530632"},{"nanyangSiteId":"tt-mb-0477","siteNameZh":"芝山巖惠濟宮","siteNameAlt1":"Zhi Shan Yan Hui Ji Gong","latitude":"25.102966","longitude":"121.530632"},{"nanyangSiteId":"tt-mb-0478","siteNameZh":"台北祖菩道場","siteNameAlt1":"Taipei Zu Pu Dao Chang","latitude":"25.086108","longitude":"121.521807"},{"nanyangSiteId":"tt-mb-0479","siteNameZh":"台北地藏禪寺","siteNameAlt1":"Taipei Di Cang Chan Si","latitude":"25.099687","longitude":"121.490656"},{"nanyangSiteId":"tt-mb-0480","siteNameZh":"保安佛堂佈教所","siteNameAlt1":"Bao An Fo Tang Bu Jiao Suo","latitude":"25.113855","longitude":"121.527818"},{"nanyangSiteId":"tt-mb-0481","siteNameZh":"蓮池禪寺","siteNameAlt1":"Lian Chi Chan Si","latitude":"25.098879","longitude":"121.555416"},{"nanyangSiteId":"tt-mb-0482","siteNameZh":"啟明佛寺","siteNameAlt1":"Qi Ming Fo Si","latitude":"25.091003","longitude":"121.524682"},{"nanyangSiteId":"tt-mb-0483","siteNameZh":"普願精舍","siteNameAlt1":"Pu Yuan Jing She","latitude":"25.084524","longitude":"121.511999"},{"nanyangSiteId":"tt-mb-0484","siteNameZh":"金山分院","siteNameAlt1":"Jin Shan Fen Yuan","latitude":"25.128543","longitude":"121.533103"},{"nanyangSiteId":"tt-mb-0485","siteNameZh":"妙光寺","siteNameAlt1":"Miao Guang Si","latitude":"25.095055","longitude":"121.539664"},{"nanyangSiteId":"tt-mb-0486","siteNameZh":"本願山天母念佛會","siteNameAlt1":"Ben Yuan Shan Tian Mu Chanting Society","latitude":"25.109434","longitude":"121.528809"},{"nanyangSiteId":"tt-mb-0487","siteNameZh":"法鼓山慈弘精舍","siteNameAlt1":"Dharma Drum Mountain Ci Hong Dharma Center","latitude":"25.079698","longitude":"121.510915"},{"nanyangSiteId":"tt-mb-0488","siteNameZh":"佛光山士林服務處","siteNameAlt1":"Fo Guang Shan Shih Lin Service Bureau","latitude":"25.098534","longitude":"121.532222"},{"nanyangSiteId":"tt-mb-0489","siteNameZh":"佛光山士林禪淨中心","siteNameAlt1":"Fo Guang Shan Shih Lin Temple","latitude":"25.098534","longitude":"121.532222"},{"nanyangSiteId":"tt-mb-0490","siteNameZh":"廣明寺","siteNameAlt1":"Guang Ming Si","latitude":"25.089651","longitude":"121.507835"},{"nanyangSiteId":"tt-mb-0491","siteNameZh":"觀音普化門丹華堂行道院","siteNameAlt1":"Guan Yin Pu Hua Men Dan Hua Tang Xing Dao Yuan","latitude":"25.113756","longitude":"121.540846"},{"nanyangSiteId":"tt-mb-0492","siteNameZh":"法鼓山天母共修處","siteNameAlt1":"Dharma Drum Mountain Tianmu Practice Center","latitude":"25.107709","longitude":"121.525813"},{"nanyangSiteId":"tt-mb-0493","siteNameZh":"法鼓山石牌聯絡處","siteNameAlt1":"Dharma Drum Mountain Shipai Liaison Office","latitude":"25.10314","longitude":"121.521083"},{"nanyangSiteId":"tt-mb-0494","siteNameZh":"法鼓山石牌辦事處","siteNameAlt1":"Dharma Drum Mountain Shipai Office","latitude":"25.10314","longitude":"121.521083"},{"nanyangSiteId":"tt-mb-0495","siteNameZh":"本願山士林念佛會","siteNameAlt1":"Ben Yuan Shan Shi Lin Chanting Society","latitude":"25.089561","longitude":"121.516136"},{"nanyangSiteId":"tt-mb-0496","siteNameZh":"士林千手觀音廟","siteNameAlt1":"Shi Lin Qian Shou Guan Yin Miao","latitude":"25.08859","longitude":"121.525925"},{"nanyangSiteId":"tt-mb-0497","siteNameZh":"慈願精舍","siteNameAlt1":"Ci Yuan Jing She","latitude":"25.100989","longitude":"121.524399"},{"nanyangSiteId":"tt-mb-0498","siteNameZh":"九品精舍","siteNameAlt1":"Jiu Pin Jing She","latitude":"25.102247","longitude":"121.527121"},{"nanyangSiteId":"tt-mb-0499","siteNameZh":"慈悟寺","siteNameAlt1":"Ci Wu Si","latitude":"25.133595","longitude":"121.532608"},{"nanyangSiteId":"tt-mb-0500","siteNameZh":"白毫精舍","siteNameAlt1":"Bai Hao Jing She","latitude":"25.105979","longitude":"121.525134"},{"nanyangSiteId":"tt-mb-0501","siteNameZh":"慈雲寺","siteNameAlt1":"Ci Yun Si","latitude":"25.124229","longitude":"121.531947"},{"nanyangSiteId":"tt-mb-0502","siteNameZh":"弘化世界藝術劇團","siteNameAlt1":"Hong Hua Shi Jie Yi Shu Ju Tuan","latitude":"25.103213","longitude":"121.518846"},{"nanyangSiteId":"tt-mb-0503","siteNameZh":"鶴鳴精舍","siteNameAlt1":"He Ming Jing She","latitude":"25.12998","longitude":"121.571951"},{"nanyangSiteId":"tt-mb-0504","siteNameZh":"平等山法輪禪寺","siteNameAlt1":"Ping Deng Shan Fa Lun Chan Si","latitude":"25.138981","longitude":"121.577936"},{"nanyangSiteId":"tt-mb-0505","siteNameZh":"龍泉寺","siteNameAlt1":"Long Quan Si","latitude":"25.124873","longitude":"121.551248"},{"nanyangSiteId":"tt-mb-0506","siteNameZh":"妙德蘭若","siteNameAlt1":"Miao De Lan Ruo","latitude":"25.105723","longitude":"121.542283"},{"nanyangSiteId":"tt-mb-0507","siteNameZh":"天岳山雲陽寺","siteNameAlt1":"Tian Yue Shan Yun Yang Si","latitude":"25.11825","longitude":"121.587071"},{"nanyangSiteId":"tt-mb-0508","siteNameZh":"三聖殿","siteNameAlt1":"San Sheng Dian","latitude":"25.124206","longitude":"121.577823"},{"nanyangSiteId":"tt-mb-0509","siteNameZh":"慈願寺","siteNameAlt1":"Ci Yuan Si","latitude":"25.098937","longitude":"121.540402"},{"nanyangSiteId":"tt-mb-0510","siteNameZh":"法雨山普宜苑","siteNameAlt1":"Fa Yu Shan Pu Yi Yuan","latitude":"25.121184","longitude":"121.577347"},{"nanyangSiteId":"tt-mb-0511","siteNameZh":"禪雲精舍","siteNameAlt1":"Chan Yun Jing She","latitude":"25.124541","longitude":"121.593629"},{"nanyangSiteId":"tt-mb-0512","siteNameZh":"中華藏密噶瑪巴協會","siteNameAlt1":"Zhong Hua Cang Mi Ga Ma Ba Xie Hui","latitude":"25.10952","longitude":"121.52389"},{"nanyangSiteId":"tt-mb-0513","siteNameZh":"大法壇","siteNameAlt1":"Da Fa Tan","latitude":"25.079164","longitude":"121.510703"},{"nanyangSiteId":"tt-mb-0514","siteNameZh":"三元宮","siteNameAlt1":"San Yuan Gong","latitude":"25.084896","longitude":"121.510757"},{"nanyangSiteId":"tt-mb-0515","siteNameZh":"葫蘆寺","siteNameAlt1":"Hu Lu Si","latitude":"25.085164","longitude":"121.508411"},{"nanyangSiteId":"tt-mb-0516","siteNameZh":"監王宮","siteNameAlt1":"Jian Wang Gong","latitude":"25.08919","longitude":"121.506495"},{"nanyangSiteId":"tt-mb-0517","siteNameZh":"三寶壇","siteNameAlt1":"San Bao Tan","latitude":"25.089901","longitude":"121.505941"},{"nanyangSiteId":"tt-mb-0518","siteNameZh":"慈安寺","siteNameAlt1":"Ci An Si","latitude":"25.105231","longitude":"121.483061"},{"nanyangSiteId":"tt-mb-0519","siteNameZh":"法鼓山後港劍潭共修處﹝通河東街 ﹞","siteNameAlt1":"Dharma Drum Mountain Hougang Jian Tan Practice Center","latitude":"25.081817","longitude":"121.517542"},{"nanyangSiteId":"tt-mb-0520","siteNameZh":"法鼓山後港劍潭共修處﹝華齡街 ﹞","siteNameAlt1":"Dharma Drum Mountain Hougang Jian Tan Practice Center","latitude":"25.086972","longitude":"121.519616"},{"nanyangSiteId":"tt-mb-0521","siteNameZh":"法鼓山劍潭共修處","siteNameAlt1":"Dharma Drum Mountain Jian Tan Practice Center","latitude":"25.0827","longitude":"121.520711"},{"nanyangSiteId":"tt-mb-0522","siteNameZh":"飛龍寺","siteNameAlt1":"Fei Long Si","latitude":"25.132797","longitude":"121.536707"},{"nanyangSiteId":"tt-mb-0523","siteNameZh":"六如殿","siteNameAlt1":"Liu Ru Dian","latitude":"25.120998","longitude":"121.54355"},{"nanyangSiteId":"tt-mb-0524","siteNameZh":"九蓮宮","siteNameAlt1":"Jiu Lian Gong","latitude":"25.088419","longitude":"121.506432"},{"nanyangSiteId":"tt-mb-0525","siteNameZh":"南海法門寺","siteNameAlt1":"Nan Hai Fa Men Si","latitude":"25.092538","longitude":"121.506441"},{"nanyangSiteId":"tt-mb-0526","siteNameZh":"慈善堂","siteNameAlt1":"Ci Shan Tang","latitude":"25.089184","longitude":"121.509697"},{"nanyangSiteId":"tt-mb-0527","siteNameZh":"雨農聞思班","siteNameAlt1":"Yu Nong Wen Si Ban","latitude":"25.097855","longitude":"121.532147"},{"nanyangSiteId":"tt-mb-0528","siteNameZh":"妙善堂","siteNameAlt1":"Miao Shan Tang","latitude":"25.10431","longitude":"121.529057"},{"nanyangSiteId":"tt-mb-0529","siteNameZh":"頻陀學苑","siteNameAlt1":"Pin Tuo Xue Yuan","latitude":"25.084479","longitude":"121.512021"},{"nanyangSiteId":"tt-mb-0530","siteNameZh":"淨因寺","siteNameAlt1":"Jing Yin Si","latitude":"25.09986","longitude":"121.556439"},{"nanyangSiteId":"tt-mb-0531","siteNameZh":"圓明寺","siteNameAlt1":"Yuan Ming Si","latitude":"25.099072","longitude":"121.556832"},{"nanyangSiteId":"tt-mb-0532","siteNameZh":"總持寺","siteNameAlt1":"Zong Chi Si","latitude":"25.08718","longitude":"121.504826"},{"nanyangSiteId":"tt-mb-0533","siteNameZh":"大方廣佛學講修學會","siteNameAlt1":"Da Fang Guang Fo Xue Jiang Xiu Xue Hui","latitude":"25.107388","longitude":"121.524849"},{"nanyangSiteId":"tt-mb-0534","siteNameZh":"中華佛教吽字持明成就正法會","siteNameAlt1":"Zhong Hua Fo Jiao Hong Zi Chi Ming Cheng Jiu Zheng Fa Hui","latitude":"25.118988","longitude":"121.525853"},{"nanyangSiteId":"tt-mb-0535","siteNameZh":"中華密宗耶旺傑仟佛學會","siteNameAlt1":"Zhong Hua Mi Zong Ye Wang Jie Qian Buddhist Institute","latitude":"25.118015","longitude":"121.536558"},{"nanyangSiteId":"tt-mb-0536","siteNameZh":"蓮華念佛會","siteNameAlt1":"Lian Hua Chanting Society","latitude":"25.086768","longitude":"121.517681"},{"nanyangSiteId":"tt-mb-0537","siteNameZh":"藏密薩迦大智佛學研究中心","siteNameAlt1":"Cang Mi Sa Jia Da Zhi Fo Xue Yan Jiu Zhong Xin","latitude":"25.089999","longitude":"121.519213"},{"nanyangSiteId":"tt-mb-0538","siteNameZh":"噶寧菩提法園佛學會","siteNameAlt1":"Ga Ning Pu Ti Fa Yuan Buddhist Institute","latitude":"25.090754","longitude":"121.515263"},{"nanyangSiteId":"tt-mb-0539","siteNameZh":"明心精舍閉關中心","siteNameAlt1":"Dharmata Meditation Center Retreat Center","latitude":"25.138985","longitude":"121.548768"},{"nanyangSiteId":"tt-mb-0540","siteNameZh":"普賢蓮社","siteNameAlt1":"Pu Xian Lian She","latitude":"25.089137","longitude":"121.51739"},{"nanyangSiteId":"tt-mb-0541","siteNameZh":"慈生佛堂","siteNameAlt1":"Ci Sheng Fo Tang","latitude":"25.124452","longitude":"121.535295"},{"nanyangSiteId":"tt-mb-0542","siteNameZh":"光泉法輪中心","siteNameAlt1":"Guang Quan Buddhist Center","latitude":"25.118548","longitude":"121.537045"},{"nanyangSiteId":"tt-mb-0543","siteNameZh":"西藏佛學會","siteNameAlt1":"Xi Cang Buddhist Institute","latitude":"25.118215","longitude":"121.533127"},{"nanyangSiteId":"tt-mb-0544","siteNameZh":"真澄寺","siteNameAlt1":"Zhen Cheng Si","latitude":"25.102277","longitude":"121.554777"},{"nanyangSiteId":"tt-mb-0545","siteNameZh":"萬佛朝山共修會","siteNameAlt1":"Wan Fo Chao Shan Gong Xiu Hui","latitude":"25.085234","longitude":"121.511016"},{"nanyangSiteId":"tt-mb-0546","siteNameZh":"如來禪蓬","siteNameAlt1":"Ru Lai Chan Peng","latitude":"25.115607","longitude":"121.56909"},{"nanyangSiteId":"tt-mb-0547","siteNameZh":"西藏密宗佛學服務中心","siteNameAlt1":"Xi Cang Mi Zong Fo Xue Fu Wu Zhong Xin","latitude":"25.082247","longitude":"121.511844"},{"nanyangSiteId":"tt-mb-0548","siteNameZh":"阿含精舍","siteNameAlt1":"A Han Jing She","latitude":"25.105203","longitude":"121.52624"},{"nanyangSiteId":"tt-mb-0549","siteNameZh":"松柏精舍","siteNameAlt1":"Song Bo Jing She","latitude":"25.086097","longitude":"121.511347"},{"nanyangSiteId":"tt-mb-0550","siteNameZh":"寧瑪巴鐵丘吉林大乘法苑佛學會","siteNameAlt1":"Nyingma Tie qiu Ji lin Da cheng Fa yuan Buddhist Institute","latitude":"25.082611","longitude":"121.520846"},{"nanyangSiteId":"tt-mb-0551","siteNameZh":"創價學會天母講堂","siteNameAlt1":"Chuang Jia Xue Hui Tian Mu Jiang Tang","latitude":"25.114207","longitude":"121.529855"},{"nanyangSiteId":"tt-mb-0552","siteNameZh":"法鼓山石牌天母共修處","siteNameAlt1":"Dharma Drum Mountain Shipai Tianmu Practice Center","latitude":"25.117506","longitude":"121.507066"},{"nanyangSiteId":"tt-mb-0553","siteNameZh":"法鼓山大同士林聯絡處","siteNameAlt1":"Dharma Drum Mountain Da Tong Shih Lin Liaison Office","latitude":"25.082148","longitude":"121.522229"},{"nanyangSiteId":"tt-mb-0554","siteNameZh":"法鼓山士林共修處","siteNameAlt1":"Dharma Drum Mountain Shih Lin Practice Center","latitude":"25.094352","longitude":"121.524107"},{"nanyangSiteId":"tt-mb-0555","siteNameZh":"法鼓山士林辦事處","siteNameAlt1":"Dharma Drum Mountain Shih Lin Office","latitude":"25.094055","longitude":"121.522898"},{"nanyangSiteId":"tt-mb-0556","siteNameZh":"法鼓山社子共修處","siteNameAlt1":"Dharma Drum Mountain She Zi Practice Center","latitude":"25.091238","longitude":"121.507138"},{"nanyangSiteId":"tt-mb-0557","siteNameZh":"法音精舍","siteNameAlt1":"Fa Yin Jing She","latitude":"25.103587","longitude":"121.526895"},{"nanyangSiteId":"tt-mb-0558","siteNameZh":"台北地藏淨宗學會﹝代收法寶處 ﹞","siteNameAlt1":"Taipei Di Cang Pureland Learning Center","latitude":"25.089916","longitude":"121.529893"},{"nanyangSiteId":"tt-mb-0559","siteNameZh":"法鼓山中華佛教文化館","siteNameAlt1":"Dharma Drum Mountain Chung-Hwa Institute of Buddhist Culture","latitude":"25.136431","longitude":"121.510307"},{"nanyangSiteId":"tt-mb-0560","siteNameZh":"法鼓山農禪寺","siteNameAlt1":"Dharma Drum Mountain Nung Chan Monastery","latitude":"25.122857","longitude":"121.495941"},{"nanyangSiteId":"tt-mb-0561","siteNameZh":"法鼓山新農禪寺","siteNameAlt1":"Dharma Drum Mountain New Nung Chan Monastery","latitude":"25.128466","longitude":"121.507056"},{"nanyangSiteId":"tt-mb-0562","siteNameZh":"法鼓山雲來寺","siteNameAlt1":"Dharma Drum Mountain Yun Lai Monastery","latitude":"25.128466","longitude":"121.507056"},{"nanyangSiteId":"tt-mb-0563","siteNameZh":"彌陀寺","siteNameAlt1":"Mi Tuo Si","latitude":"25.144522","longitude":"121.521202"},{"nanyangSiteId":"tt-mb-0564","siteNameZh":"曹洞宗佈教所","siteNameAlt1":"Cao Dong Zong Bu Jiao Suo","latitude":"25.055476","longitude":"121.512121"},{"nanyangSiteId":"tt-mb-0565","siteNameZh":"清泉寺","siteNameAlt1":"Qing Quan Si","latitude":"25.130497","longitude":"121.507442"},{"nanyangSiteId":"tt-mb-0566","siteNameZh":"中和禪寺","siteNameAlt1":"Zhong He Chan Si","latitude":"25.130497","longitude":"121.507442"},{"nanyangSiteId":"tt-mb-0567","siteNameZh":"大山寺","siteNameAlt1":"Da Shan Si","latitude":"25.147698","longitude":"121.518874"},{"nanyangSiteId":"tt-mb-0568","siteNameZh":"淨蓮院","siteNameAlt1":"Jing Lian Yuan","latitude":"25.147698","longitude":"121.518874"},{"nanyangSiteId":"tt-mb-0569","siteNameZh":"法雨寺","siteNameAlt1":"Fa Yu Si","latitude":"25.147698","longitude":"121.518874"},{"nanyangSiteId":"tt-mb-0570","siteNameZh":"觀音禪院","siteNameAlt1":"Guan Yin Chan Yuan","latitude":"25.126956","longitude":"121.513348"},{"nanyangSiteId":"tt-mb-0571","siteNameZh":"飛龍寺","siteNameAlt1":"Fei Long Si","latitude":"25.14542","longitude":"121.496397"},{"nanyangSiteId":"tt-mb-0572","siteNameZh":"慈航寺﹝草創期 ﹞","siteNameAlt1":"Ci Hang Si","latitude":"25.14542","longitude":"121.496397"},{"nanyangSiteId":"tt-mb-0573","siteNameZh":"慈航寺","siteNameAlt1":"Ci Hang Si","latitude":"25.14542","longitude":"121.496397"},{"nanyangSiteId":"tt-mb-0574","siteNameZh":"靈泉山普濟寺","siteNameAlt1":"Ling Quan Shan Pu Ji Si","latitude":"25.13595","longitude":"121.511176"},{"nanyangSiteId":"tt-mb-0575","siteNameZh":"善光寺","siteNameAlt1":"Shan Guang Si","latitude":"25.135766","longitude":"121.518789"},{"nanyangSiteId":"tt-mb-0576","siteNameZh":"大慈寺","siteNameAlt1":"Da Ci Si","latitude":"25.149669","longitude":"121.516004"},{"nanyangSiteId":"tt-mb-0577","siteNameZh":"慈善堂","siteNameAlt1":"Ci Shan Tang","latitude":"25.147018","longitude":"121.503558"},{"nanyangSiteId":"tt-mb-0578","siteNameZh":"安國寺﹝草創期 ﹞","siteNameAlt1":"An Kuo Temple","latitude":"25.147018","longitude":"121.503558"},{"nanyangSiteId":"tt-mb-0579","siteNameZh":"佛光山安國寺","siteNameAlt1":"Fo Guang Shan An Kuo Temple","latitude":"25.147018","longitude":"121.503558"},{"nanyangSiteId":"tt-mb-0580","siteNameZh":"新北投曹洞宗佈教所","siteNameAlt1":"Xin Bei Tou Cao Dong Zong Bu Jiao Suo","latitude":"25.139389","longitude":"121.513477"},{"nanyangSiteId":"tt-mb-0581","siteNameZh":"法藏寺","siteNameAlt1":"Fa Cang Si","latitude":"25.139797","longitude":"121.513242"},{"nanyangSiteId":"tt-mb-0582","siteNameZh":"中台山普印精舍﹝草創期 ﹞","siteNameAlt1":"Chung Tai Shan Pu Yin Meditation Center (Taipei City)","latitude":"25.114109","longitude":"121.512833"},{"nanyangSiteId":"tt-mb-0583","siteNameZh":"中台山普印精舍","siteNameAlt1":"Chung Tai Shan Pu Yin Meditation Center (Taipei City)","latitude":"25.114109","longitude":"121.512833"},{"nanyangSiteId":"tt-mb-0584","siteNameZh":"慈濟關渡志業園區","siteNameAlt1":"Ci Ji Guan Du Zhi Ye Yuan Qu","latitude":"25.12321","longitude":"121.469955"},{"nanyangSiteId":"tt-mb-0585","siteNameZh":"靈法寺","siteNameAlt1":"Ling Fa Si","latitude":"25.142999","longitude":"121.503987"},{"nanyangSiteId":"tt-mb-0586","siteNameZh":"不動明王寺石窟","siteNameAlt1":"Bu Dong Ming Wang Si Shi Ku","latitude":"25.138003","longitude":"121.517071"},{"nanyangSiteId":"tt-mb-0587","siteNameZh":"行天堂","siteNameAlt1":"Xing Tian Tang","latitude":"25.073063","longitude":"121.511902"},{"nanyangSiteId":"tt-mb-0588","siteNameZh":"關帝廟行天宮","siteNameAlt1":"Guan Di Miao Xing Tian Gong","latitude":"25.062513","longitude":"121.525203"},{"nanyangSiteId":"tt-mb-0589","siteNameZh":"台北行天宮北投分宮","siteNameAlt1":"Taipei Xing Tian Gong Bei Tou Fen Gong","latitude":"25.136951","longitude":"121.477608"},{"nanyangSiteId":"tt-mb-0590","siteNameZh":"明德淨宗學會","siteNameAlt1":"Ming De Pureland Learning Center","latitude":"25.109525","longitude":"121.519804"},{"nanyangSiteId":"tt-mb-0591","siteNameZh":"明解宮","siteNameAlt1":"Ming Jie Gong","latitude":"25.133095","longitude":"121.498886"},{"nanyangSiteId":"tt-mb-0592","siteNameZh":"佛恩寺","siteNameAlt1":"Fo En Si","latitude":"25.137147","longitude":"121.510215"},{"nanyangSiteId":"tt-mb-0593","siteNameZh":"白聖禪寺","siteNameAlt1":"Bai Sheng Chan Si","latitude":"25.136252","longitude":"121.498033"},{"nanyangSiteId":"tt-mb-0594","siteNameZh":"聖雲宮","siteNameAlt1":"Sheng Yun Gong","latitude":"25.10896","longitude":"121.514097"},{"nanyangSiteId":"tt-mb-0595","siteNameZh":"日本高野山無量光院台灣別院","siteNameAlt1":"Ri Ben Gao Ye Shan Wu Liang Guang Yuan Taiwan Bie Yuan","latitude":"25.113437","longitude":"121.511221"},{"nanyangSiteId":"tt-mb-0596","siteNameZh":"慈濟人文志業中心","siteNameAlt1":"Ci Ji Ren Wen Zhi Ye Zhong Xin","latitude":"25.123535","longitude":"121.471793"},{"nanyangSiteId":"tt-mb-0597","siteNameZh":"聖賢禪寺","siteNameAlt1":"Sheng Xian Chan Si","latitude":"25.119064","longitude":"121.506556"},{"nanyangSiteId":"tt-mb-0598","siteNameZh":"法音精舍","siteNameAlt1":"Fa Yin Jing She","latitude":"25.108255","longitude":"121.518406"},{"nanyangSiteId":"tt-mb-0599","siteNameZh":"法鼓山石牌共修處","siteNameAlt1":"Dharma Drum Mountain Shipai Practice Center","latitude":"25.124152","longitude":"121.527911"},{"nanyangSiteId":"tt-mb-0600","siteNameZh":"法鼓山同德共修處","siteNameAlt1":"Dharma Drum Mountain Tong De Practice Center","latitude":"25.124152","longitude":"121.527911"},{"nanyangSiteId":"tt-mb-0601","siteNameZh":"湖慈南海寺","siteNameAlt1":"Hu Ci Nan Hai Si","latitude":"25.181238","longitude":"121.562744"},{"nanyangSiteId":"tt-mb-0602","siteNameZh":"光泉寺","siteNameAlt1":"Guang Quan Si","latitude":"25.176738","longitude":"121.533828"},{"nanyangSiteId":"tt-mb-0603","siteNameZh":"石牌太子會","siteNameAlt1":"Shi Pai Tai Zi Hui","latitude":"25.111451","longitude":"121.512323"},{"nanyangSiteId":"tt-mb-0604","siteNameZh":"聖賢堂","siteNameAlt1":"Sheng Xian Tang","latitude":"25.128541","longitude":"121.52688"},{"nanyangSiteId":"tt-mb-0605","siteNameZh":"十方菩提精舍","siteNameAlt1":"Shi Fang Pu Ti Jing She","latitude":"25.14283","longitude":"121.495852"},{"nanyangSiteId":"tt-mb-0606","siteNameZh":"正覺禪寺","siteNameAlt1":"Zheng Jue Chan Si","latitude":"25.151008","longitude":"121.490729"},{"nanyangSiteId":"tt-mb-0607","siteNameZh":"頂湖土地公廟","siteNameAlt1":"Ding Hu Tu Di Gong Miao","latitude":"25.156076","longitude":"121.52986"},{"nanyangSiteId":"tt-mb-0608","siteNameZh":"北投至妙寺","siteNameAlt1":"Bei Tou Zhi Miao Si","latitude":"25.148539","longitude":"121.530612"},{"nanyangSiteId":"tt-mb-0609","siteNameZh":"妙音精舍","siteNameAlt1":"Miao Yin Jing She","latitude":"25.137571","longitude":"121.517809"},{"nanyangSiteId":"tt-mb-0610","siteNameZh":"西宏寺","siteNameAlt1":"Xi Hong Si","latitude":"25.137176","longitude":"121.512586"},{"nanyangSiteId":"tt-mb-0611","siteNameZh":"鐘鼓峒","siteNameAlt1":"Zhong Gu Tong","latitude":"25.137176","longitude":"121.512586"},{"nanyangSiteId":"tt-mb-0612","siteNameZh":"普庵精舍","siteNameAlt1":"Pu An Jing She","latitude":"25.137176","longitude":"121.513186"},{"nanyangSiteId":"tt-mb-0613","siteNameZh":"福慧禪寺","siteNameAlt1":"Fu Hui Chan Si","latitude":"25.137176","longitude":"121.512676"},{"nanyangSiteId":"tt-mb-0614","siteNameZh":"龍雲寺","siteNameAlt1":"Long Yun Si","latitude":"25.13699","longitude":"121.51241"},{"nanyangSiteId":"tt-mb-0615","siteNameZh":"天竺寺","siteNameAlt1":"Tian Zhu Si","latitude":"25.138786","longitude":"121.517281"},{"nanyangSiteId":"tt-mb-0616","siteNameZh":"曼陀寺","siteNameAlt1":"Man Tuo Si","latitude":"25.138123","longitude":"121.517612"},{"nanyangSiteId":"tt-mb-0617","siteNameZh":"曹洞寺","siteNameAlt1":"Cao Dong Si","latitude":"25.138486","longitude":"121.515945"},{"nanyangSiteId":"tt-mb-0618","siteNameZh":"北投玉佛寺","siteNameAlt1":"Bei Tou Yu Fo Si","latitude":"25.137798","longitude":"121.518281"},{"nanyangSiteId":"tt-mb-0619","siteNameZh":"千佛堂","siteNameAlt1":"Qian Fo Tang","latitude":"25.141668","longitude":"121.51365"},{"nanyangSiteId":"tt-mb-0620","siteNameZh":"妙行宮","siteNameAlt1":"Miao Xing Gong","latitude":"25.11581","longitude":"121.518862"},{"nanyangSiteId":"tt-mb-0621","siteNameZh":"觀音佛堂","siteNameAlt1":"Guan Yin Fo Tang","latitude":"25.139316","longitude":"121.503468"},{"nanyangSiteId":"tt-mb-0622","siteNameZh":"集賢堂","siteNameAlt1":"Ji Xian Tang","latitude":"25.147801","longitude":"121.533162"},{"nanyangSiteId":"tt-mb-0623","siteNameZh":"梵笙佛堂","siteNameAlt1":"Fan Sheng Fo Tang","latitude":"25.125152","longitude":"121.501731"},{"nanyangSiteId":"tt-mb-0624","siteNameZh":"照明淨寺","siteNameAlt1":"Zhao Ming Jing Si","latitude":"25.131546","longitude":"121.513937"},{"nanyangSiteId":"tt-mb-0625","siteNameZh":"普照堂","siteNameAlt1":"Pu Zhao Tang","latitude":"25.127374","longitude":"121.502251"},{"nanyangSiteId":"tt-mb-0626","siteNameZh":"三公堂","siteNameAlt1":"San Gong Tang","latitude":"25.115338","longitude":"121.508372"},{"nanyangSiteId":"tt-mb-0627","siteNameZh":"玄妙寺","siteNameAlt1":"Xuan Miao Si","latitude":"25.141393","longitude":"121.503717"},{"nanyangSiteId":"tt-mb-0628","siteNameZh":"蓮居山淨華蓮苑","siteNameAlt1":"Lian Ju Shan Jing Hua Lian Yuan","latitude":"25.160282","longitude":"121.500904"},{"nanyangSiteId":"tt-mb-0629","siteNameZh":"陽明禪寺","siteNameAlt1":"Yang Ming Chan Si","latitude":"25.154525","longitude":"121.540482"},{"nanyangSiteId":"tt-mb-0630","siteNameZh":"佛樺靜舍","siteNameAlt1":"Fo Hua Jing She","latitude":"25.147789","longitude":"121.537771"},{"nanyangSiteId":"tt-mb-0631","siteNameZh":"菩提伽耶內覺禪林","siteNameAlt1":"Pu Ti Qie Ye Nei Jue Chan Lin","latitude":"25.150517","longitude":"121.519545"},{"nanyangSiteId":"tt-mb-0632","siteNameZh":"大願寺","siteNameAlt1":"Da Yuan Si","latitude":"25.135696","longitude":"121.509603"},{"nanyangSiteId":"tt-mb-0633","siteNameZh":"佛林寺","siteNameAlt1":"Fo Lin Si","latitude":"25.139389","longitude":"121.513675"},{"nanyangSiteId":"tt-mb-0634","siteNameZh":"法鼓山北投共修處﹝大興街 ﹞","siteNameAlt1":"Dharma Drum Mountain Beitou Practice Center","latitude":"25.129232","longitude":"121.4985"},{"nanyangSiteId":"tt-mb-0635","siteNameZh":"法鼓山北投共修處﹝大業路 ﹞","siteNameAlt1":"Dharma Drum Mountain Beitou Practice Center","latitude":"25.127937","longitude":"121.499457"},{"nanyangSiteId":"tt-mb-0636","siteNameZh":"法鼓山北投共修處﹝清江路 ﹞","siteNameAlt1":"Dharma Drum Mountain Beitou Practice Center","latitude":"25.13163","longitude":"121.502501"},{"nanyangSiteId":"tt-mb-0637","siteNameZh":"法鼓山北投辦事處","siteNameAlt1":"Dharma Drum Mountain Beitou Office","latitude":"25.13485","longitude":"121.505029"},{"nanyangSiteId":"tt-mb-0638","siteNameZh":"靈泉寺","siteNameAlt1":"Ling Quan Si","latitude":"25.141157","longitude":"121.514932"},{"nanyangSiteId":"tt-mb-0639","siteNameZh":"法眼寺","siteNameAlt1":"Fa Yan Si","latitude":"25.142991","longitude":"121.500274"},{"nanyangSiteId":"tt-mb-0640","siteNameZh":"正印佛堂","siteNameAlt1":"Zheng Yin Fo Tang","latitude":"25.128624","longitude":"121.500747"},{"nanyangSiteId":"tt-mb-0641","siteNameZh":"心華菩提精舍","siteNameAlt1":"Xin Hua Pu Ti Jing She","latitude":"25.141215","longitude":"121.499632"},{"nanyangSiteId":"tt-mb-0642","siteNameZh":"佛日講堂","siteNameAlt1":"Fo Ri Jiang Tang","latitude":"25.125242","longitude":"121.500126"},{"nanyangSiteId":"tt-mb-0643","siteNameZh":"東山龍山寺護法會","siteNameAlt1":"Dong Shan Long Shan Si Hu Fa Hui","latitude":"25.114232","longitude":"121.510508"},{"nanyangSiteId":"tt-mb-0644","siteNameZh":"藥師法輪中心","siteNameAlt1":"Yao Shi Buddhist Center","latitude":"25.122859","longitude":"121.521689"},{"nanyangSiteId":"tt-mb-0645","siteNameZh":"陽明精舍","siteNameAlt1":"Yang Ming Jing She","latitude":"25.116232","longitude":"121.516089"},{"nanyangSiteId":"tt-mb-0646","siteNameZh":"北投佛教居士林","siteNameAlt1":"Bei Tou Fo Jiao Ju Shi Lin","latitude":"25.135087","longitude":"121.502311"},{"nanyangSiteId":"tt-mb-0647","siteNameZh":"佛世界講堂","siteNameAlt1":"Fo Shi Jie Jiang Tang","latitude":"25.118691","longitude":"121.50735"},{"nanyangSiteId":"tt-mb-0648","siteNameZh":"佛乘宗台北大自在禪林","siteNameAlt1":"Fo Sheng Zong Taipei Da Zi Zai Chan Lin","latitude":"25.106867","longitude":"121.517136"},{"nanyangSiteId":"tt-mb-0649","siteNameZh":"念恩精舍","siteNameAlt1":"Nian En Jing She","latitude":"25.108273","longitude":"121.518388"},{"nanyangSiteId":"tt-mb-0650","siteNameZh":"普濟精舍","siteNameAlt1":"Pu Ji Jing She","latitude":"25.141377","longitude":"121.510971"},{"nanyangSiteId":"tt-mb-0651","siteNameZh":"佛教蓮池海會懷德道場","siteNameAlt1":"Fo Jiao Lian Chi Hai Hui Huai De Dao Chang","latitude":"25.108895","longitude":"121.516524"},{"nanyangSiteId":"tt-mb-0652","siteNameZh":"淨覺學佛園","siteNameAlt1":"Jing Jue Xue Fo Yuan","latitude":"25.114484","longitude":"121.523597"},{"nanyangSiteId":"tt-mb-0653","siteNameZh":"卍禪學蓮社","siteNameAlt1":"Wan Chan Xue Lian She","latitude":"25.149241","longitude":"121.50277"},{"nanyangSiteId":"tt-mb-0654","siteNameZh":"聖淨蓮社","siteNameAlt1":"Sheng Jing Lian She","latitude":"25.118101","longitude":"121.515524"},{"nanyangSiteId":"tt-mb-0655","siteNameZh":"覺光寺","siteNameAlt1":"Jue Guang Si","latitude":"25.143228","longitude":"121.486872"},{"nanyangSiteId":"tt-mb-0656","siteNameZh":"台灣禪宗佛教會","siteNameAlt1":"Taiwan Zen Buddhist Association","latitude":"25.135376","longitude":"121.50467"},{"nanyangSiteId":"tt-mb-0657","siteNameZh":"生命電視北投中心","siteNameAlt1":"Sheng Ming Dian Shi Bei Tou Zhong Xin","latitude":"25.136101","longitude":"121.510765"},{"nanyangSiteId":"tt-mb-0658","siteNameZh":"生命電視石牌流通處","siteNameAlt1":"Sheng Ming Dian Shi Shi Pai Liu Tong Chu","latitude":"25.115005","longitude":"121.515805"},{"nanyangSiteId":"tt-mb-0659","siteNameZh":"白雲精舍","siteNameAlt1":"Bai Yun Jing She","latitude":"25.15178","longitude":"121.491448"},{"nanyangSiteId":"tt-mb-0660","siteNameZh":"妙音菩提寺","siteNameAlt1":"Miao Yin Pu Ti Si","latitude":"25.088001","longitude":"121.572873"},{"nanyangSiteId":"tt-mb-0661","siteNameZh":"金龍禪寺","siteNameAlt1":"Jin Long Chan Si","latitude":"25.091744","longitude":"121.586422"},{"nanyangSiteId":"tt-mb-0662","siteNameZh":"圓覺寺","siteNameAlt1":"Yuan Jue Si","latitude":"25.097598","longitude":"121.590939"},{"nanyangSiteId":"tt-mb-0663","siteNameZh":"中台山普雲精舍","siteNameAlt1":"Chung Tai Shan Pu Yun Meditation Center","latitude":"25.084238","longitude":"121.593096"},{"nanyangSiteId":"tt-mb-0664","siteNameZh":"佛光山佛寶寺","siteNameAlt1":"Fo Guang Shan Fo Pao Temple","latitude":"25.066634","longitude":"121.588483"},{"nanyangSiteId":"tt-mb-0665","siteNameZh":"佛光山內湖禪淨中心","siteNameAlt1":"Fo Guang Shan Nei Hu Temple","latitude":"25.066634","longitude":"121.588483"},{"nanyangSiteId":"tt-mb-0666","siteNameZh":"佛光蓮山寺","siteNameAlt1":"Fo Guang Lian Shan Si","latitude":"25.082299","longitude":"121.568236"},{"nanyangSiteId":"tt-mb-0667","siteNameZh":"觀音巖紫竹林","siteNameAlt1":"Guan Yin Yan Zi Zhu Lin","latitude":"25.087044","longitude":"121.557479"},{"nanyangSiteId":"tt-mb-0668","siteNameZh":"如來精舍","siteNameAlt1":"Ru Lai Jing She","latitude":"25.078969","longitude":"121.586679"},{"nanyangSiteId":"tt-mb-0669","siteNameZh":"紫雲精舍","siteNameAlt1":"Zi Yun Jing She","latitude":"25.07614","longitude":"121.581677"},{"nanyangSiteId":"tt-mb-0670","siteNameZh":"法鼓山內湖大直共修處","siteNameAlt1":"Dharma Drum Mountain Nei Hu Da zhi Practice Center","latitude":"25.088152","longitude":"121.591304"},{"nanyangSiteId":"tt-mb-0671","siteNameZh":"法鼓山內湖東湖共修處","siteNameAlt1":"Dharma Drum Mountain Nei Hu Dong Hu Practice Center","latitude":"25.088152","longitude":"121.591304"},{"nanyangSiteId":"tt-mb-0672","siteNameZh":"法鼓山內湖共修處","siteNameAlt1":"Dharma Drum Mountain Nei Hu Practice Center","latitude":"25.088152","longitude":"121.591304"},{"nanyangSiteId":"tt-mb-0673","siteNameZh":"法鼓山內湖辦事處","siteNameAlt1":"Dharma Drum Mountain Nei Hu Office","latitude":"25.069787","longitude":"121.592501"},{"nanyangSiteId":"tt-mb-0674","siteNameZh":"中華佛教直貢噶舉協會","siteNameAlt1":"Chinese Buddhism Drikung Kagyu Center","latitude":"25.067831","longitude":"121.587668"},{"nanyangSiteId":"tt-mb-0675","siteNameZh":"尊勝寺","siteNameAlt1":"Zun Sheng Si","latitude":"25.073676","longitude":"121.587174"},{"nanyangSiteId":"tt-mb-0676","siteNameZh":"妙音共修會","siteNameAlt1":"Miao Yin Gong Xiu Hui","latitude":"25.08481","longitude":"121.597897"},{"nanyangSiteId":"tt-mb-0677","siteNameZh":"寧瑪巴白玉龍寧九乘佛學會","siteNameAlt1":"Nyingmapa Palyul Long ning Jiu cheng Buddhist Institute","latitude":"25.079326","longitude":"121.589879"},{"nanyangSiteId":"tt-mb-0678","siteNameZh":"薩迦諾爾旺遍德林佛學會","siteNameAlt1":"Sa Jia Nuo Er Wang Bian De Lin Buddhist Institute","latitude":"25.074022","longitude":"121.60604"},{"nanyangSiteId":"tt-mb-0679","siteNameZh":"菩提文教基金會","siteNameAlt1":"Pu Ti Wen Jiao Ji Jin Hui","latitude":"25.08266","longitude":"121.59542"},{"nanyangSiteId":"tt-mb-0680","siteNameZh":"慈明講堂","siteNameAlt1":"Ci Ming Jiang Tang","latitude":"25.088157","longitude":"121.587153"},{"nanyangSiteId":"tt-mb-0681","siteNameZh":"觀音閣","siteNameAlt1":"Guan Yin Ge","latitude":"25.078452","longitude":"121.598273"},{"nanyangSiteId":"tt-mb-0682","siteNameZh":"觀聖宮","siteNameAlt1":"Guan Sheng Gong","latitude":"25.071445","longitude":"121.612198"},{"nanyangSiteId":"tt-mb-0683","siteNameZh":"福德宮","siteNameAlt1":"Fu De Gong","latitude":"25.073214","longitude":"121.611067"},{"nanyangSiteId":"tt-mb-0684","siteNameZh":"竹蓮寺","siteNameAlt1":"Zhu Lian Si","latitude":"25.073243","longitude":"121.612962"},{"nanyangSiteId":"tt-mb-0685","siteNameZh":"觀佛門","siteNameAlt1":"Guan Fo Men","latitude":"25.070606","longitude":"121.619484"},{"nanyangSiteId":"tt-mb-0686","siteNameZh":"人天宮","siteNameAlt1":"Ren Tian Gong","latitude":"25.072883","longitude":"121.618011"},{"nanyangSiteId":"tt-mb-0687","siteNameZh":"週美佛堂","siteNameAlt1":"Zhou Mei Fo Tang","latitude":"25.054628","longitude":"121.578258"},{"nanyangSiteId":"tt-mb-0688","siteNameZh":"琉璃園吉祥寺","siteNameAlt1":"Liu Li Yuan Ji Xiang Si","latitude":"25.103484","longitude":"121.588761"},{"nanyangSiteId":"tt-mb-0689","siteNameZh":"恆光禪寺","siteNameAlt1":"Heng Guang Chan Si","latitude":"25.106188","longitude":"121.589158"},{"nanyangSiteId":"tt-mb-0690","siteNameZh":"萬佛山寺","siteNameAlt1":"Wan Fo Shan Si","latitude":"25.098667","longitude":"121.587281"},{"nanyangSiteId":"tt-mb-0691","siteNameZh":"石頭公廟","siteNameAlt1":"Shi Tou Gong Miao","latitude":"25.060668","longitude":"121.593902"},{"nanyangSiteId":"tt-mb-0692","siteNameZh":"竹月寺","siteNameAlt1":"Zhu Yue Si","latitude":"25.08966","longitude":"121.571649"},{"nanyangSiteId":"tt-mb-0693","siteNameZh":"九品蓮佛學視聽圖書館","siteNameAlt1":"Jiu Pin Lian Fo Xue Audio-visual library","latitude":"25.057445","longitude":"121.583477"},{"nanyangSiteId":"tt-mb-0694","siteNameZh":"慈濟內湖聯絡處","siteNameAlt1":"Ci Ji Nei Hu Lian Luo Chu","latitude":"25.08343","longitude":"121.605284"},{"nanyangSiteId":"tt-mb-0695","siteNameZh":"佛光堂","siteNameAlt1":"Fo Guang Tang","latitude":"25.085902","longitude":"121.591737"},